{"type":"FeatureCollection","features":[{"type":"Feature","geometry":{"type":"Point","coordinates":[-120.5615,41.48362]},"properties":{"station_name":"Alturas","last_updated":"2025-01-13T07:22:09.356Z","station_id":"KAAT","dew_point_temp_f":17.44,"wet_bulb_temp_f":null,"air_temp_f":28.4,"relative_humidity_pct":63.45,"wind_cardinal_direction":"NE","wind_gust_mph":null,"peak_wind_direction_deg":null,"peak_wind_speed_mph":null,"wind_direction_deg":40,"wind_speed_mph":4.6,"label":"4.6 mph, NE"}},{"type":"Feature","geometry":{"type":"Point","coordinates":[-124.10861,40.97806]},"properties":{"station_name":"Arcata / Eureka, Arcata Airport","last_updated":"2025-01-13T07:22:09.356Z","station_id":"KACV","dew_point_temp_f":35.56,"wet_bulb_temp_f":null,"air_temp_f":37.4,"relative_humidity_pct":93.13,"wind_cardinal_direction":"E","wind_gust_mph":null,"peak_wind_direction_deg":null,"peak_wind_speed_mph":null,"wind_direction_deg":90,"wind_speed_mph":4.6,"label":"4.6 mph, E"}},{"type":"Feature","geometry":{"type":"Point","coordinates":[-122.27944,38.2075]},"properties":{"station_name":"Napa, Napa County Airport","last_updated":"2025-01-13T07:22:09.356Z","station_id":"KAPC","dew_point_temp_f":31.89,"wet_bulb_temp_f":null,"air_temp_f":39.2,"relative_humidity_pct":75.14,"wind_cardinal_direction":"N","wind_gust_mph":null,"peak_wind_direction_deg":null,"peak_wind_speed_mph":null,"wind_direction_deg":360,"wind_speed_mph":5.75,"label":"5.75 mph, N"}},{"type":"Feature","geometry":{"type":"Point","coordinates":[-119.05667,35.43361]},"properties":{"station_name":"Bakersfield, Meadows Field Airport","last_updated":"2025-01-13T07:22:09.356Z","station_id":"KBFL","dew_point_temp_f":28.22,"wet_bulb_temp_f":null,"air_temp_f":42.8,"relative_humidity_pct":56.46,"wind_cardinal_direction":"ENE","wind_gust_mph":null,"peak_wind_direction_deg":null,"peak_wind_speed_mph":null,"wind_direction_deg":70,"wind_speed_mph":4.6,"label":"4.6 mph, ENE"}},{"type":"Feature","geometry":{"type":"Point","coordinates":[-118.35806,37.37111]},"properties":{"station_name":"Bishop, Bishop Airport","last_updated":"2025-01-13T07:22:09.356Z","station_id":"KBIH","dew_point_temp_f":15.57,"wet_bulb_temp_f":null,"air_temp_f":35.6,"relative_humidity_pct":43.88,"wind_cardinal_direction":"NNW","wind_gust_mph":null,"peak_wind_direction_deg":null,"peak_wind_speed_mph":null,"wind_direction_deg":340,"wind_speed_mph":9.21,"label":"9.21 mph, NNW"}},{"type":"Feature","geometry":{"type":"Point","coordinates":[-114.71694,33.61917]},"properties":{"station_name":"Blythe, Blythe Airport","last_updated":"2025-01-13T07:22:09.356Z","station_id":"KBLH","dew_point_temp_f":11.95,"wet_bulb_temp_f":null,"air_temp_f":46.4,"relative_humidity_pct":24.65,"wind_cardinal_direction":"NW","wind_gust_mph":null,"peak_wind_direction_deg":null,"peak_wind_speed_mph":null,"wind_direction_deg":320,"wind_speed_mph":12.66,"label":"12.66 mph, NW"}},{"type":"Feature","geometry":{"type":"Point","coordinates":[-120.70806,39.27611]},"properties":{"station_name":"Emigrant Gap, Blue Canyon Nyack Airport","last_updated":"2025-01-13T07:22:09.356Z","station_id":"KBLU","dew_point_temp_f":11.95,"wet_bulb_temp_f":null,"air_temp_f":33.8,"relative_humidity_pct":40.24,"wind_cardinal_direction":"NE","wind_gust_mph":21.86,"peak_wind_direction_deg":null,"peak_wind_speed_mph":null,"wind_direction_deg":50,"wind_speed_mph":12.66,"label":"12.66 mph (gusts 21.86), NE"}},{"type":"Feature","geometry":{"type":"Point","coordinates":[-118.36538,34.19967]},"properties":{"station_name":"Burbank - Bob Hope Airport","last_updated":"2025-01-13T07:22:09.356Z","station_id":"KBUR","dew_point_temp_f":15.55,"wet_bulb_temp_f":null,"air_temp_f":46.4,"relative_humidity_pct":28.88,"wind_cardinal_direction":"NE","wind_gust_mph":null,"peak_wind_direction_deg":null,"peak_wind_speed_mph":null,"wind_direction_deg":40,"wind_speed_mph":4.6,"label":"4.6 mph, NE"}},{"type":"Feature","geometry":{"type":"Point","coordinates":[-122.05194,37.99167]},"properties":{"station_name":"Concord, Buchanan Field","last_updated":"2025-01-13T07:22:09.356Z","station_id":"KCCR","dew_point_temp_f":30.02,"wet_bulb_temp_f":null,"air_temp_f":46.4,"relative_humidity_pct":52.98,"wind_cardinal_direction":"SSE","wind_gust_mph":null,"peak_wind_direction_deg":null,"peak_wind_speed_mph":null,"wind_direction_deg":150,"wind_speed_mph":4.6,"label":"4.6 mph, SSE"}},{"type":"Feature","geometry":{"type":"Point","coordinates":[-124.23667,41.78028]},"properties":{"station_name":"Crescent City, Jack McNamara Field Airport","last_updated":"2025-01-13T07:22:09.356Z","station_id":"KCEC","dew_point_temp_f":33.64,"wet_bulb_temp_f":null,"air_temp_f":48.2,"relative_humidity_pct":57.25,"wind_cardinal_direction":"N","wind_gust_mph":null,"peak_wind_direction_deg":null,"peak_wind_speed_mph":null,"wind_direction_deg":350,"wind_speed_mph":8.06,"label":"8.06 mph, N"}},{"type":"Feature","geometry":{"type":"Point","coordinates":[-119.08333,34.21667]},"properties":{"station_name":"Camarillo, Camarillo Airport","last_updated":"2025-01-13T07:22:09.356Z","station_id":"KCMA","dew_point_temp_f":12,"wet_bulb_temp_f":null,"air_temp_f":53.6,"relative_humidity_pct":18.86,"wind_cardinal_direction":"E","wind_gust_mph":null,"peak_wind_direction_deg":null,"peak_wind_speed_mph":null,"wind_direction_deg":80,"wind_speed_mph":10.36,"label":"10.36 mph, E"}},{"type":"Feature","geometry":{"type":"Point","coordinates":[-117.27583,33.13]},"properties":{"station_name":"Carlsbad, McClellan-Palomar Airport","last_updated":"2025-01-13T07:22:09.356Z","station_id":"KCRQ","dew_point_temp_f":28.2,"wet_bulb_temp_f":null,"air_temp_f":48.2,"relative_humidity_pct":46,"wind_cardinal_direction":"NE","wind_gust_mph":null,"peak_wind_direction_deg":null,"peak_wind_speed_mph":null,"wind_direction_deg":50,"wind_speed_mph":6.91,"label":"6.91 mph, NE"}},{"type":"Feature","geometry":{"type":"Point","coordinates":[-116.78667,34.85361]},"properties":{"station_name":"Daggett, Barstow-Daggett Airport","last_updated":"2025-01-13T07:22:09.356Z","station_id":"KDAG","dew_point_temp_f":8.33,"wet_bulb_temp_f":null,"air_temp_f":37.4,"relative_humidity_pct":29.69,"wind_cardinal_direction":"N","wind_gust_mph":null,"peak_wind_direction_deg":null,"peak_wind_speed_mph":null,"wind_direction_deg":0,"wind_speed_mph":0,"label":"0 mph, N"}},{"type":"Feature","geometry":{"type":"Point","coordinates":[-114.62333,34.76611]},"properties":{"station_name":"Needles, Needles Airport","last_updated":"2025-01-13T07:22:09.356Z","station_id":"KEED","dew_point_temp_f":17.37,"wet_bulb_temp_f":null,"air_temp_f":51.8,"relative_humidity_pct":25.53,"wind_cardinal_direction":"NNW","wind_gust_mph":21.86,"peak_wind_direction_deg":null,"peak_wind_speed_mph":null,"wind_direction_deg":340,"wind_speed_mph":16.11,"label":"16.11 mph (gusts 21.86), NNW"}},{"type":"Feature","geometry":{"type":"Point","coordinates":[-119.71944,36.78]},"properties":{"station_name":"Fresno, Fresno Air Terminal","last_updated":"2025-01-13T07:22:09.356Z","station_id":"KFAT","dew_point_temp_f":33.69,"wet_bulb_temp_f":null,"air_temp_f":41,"relative_humidity_pct":75.32,"wind_cardinal_direction":"E","wind_gust_mph":null,"peak_wind_direction_deg":null,"peak_wind_speed_mph":null,"wind_direction_deg":90,"wind_speed_mph":5.75,"label":"5.75 mph, E"}},{"type":"Feature","geometry":{"type":"Point","coordinates":[-117.98472,33.87194]},"properties":{"station_name":"Fullerton, Fullerton Municipal Airport","last_updated":"2025-01-13T07:22:09.356Z","station_id":"KFUL","dew_point_temp_f":17.37,"wet_bulb_temp_f":null,"air_temp_f":51.8,"relative_humidity_pct":25.53,"wind_cardinal_direction":"ENE","wind_gust_mph":null,"peak_wind_direction_deg":null,"peak_wind_speed_mph":null,"wind_direction_deg":60,"wind_speed_mph":3.45,"label":"3.45 mph, ENE"}},{"type":"Feature","geometry":{"type":"Point","coordinates":[-118.33194,33.92361]},"properties":{"station_name":"Hawthorne, Hawthorne Municipal Airport","last_updated":"2025-01-13T07:22:09.356Z","station_id":"KHHR","dew_point_temp_f":37.26,"wet_bulb_temp_f":null,"air_temp_f":51.8,"relative_humidity_pct":57.78,"wind_cardinal_direction":"N","wind_gust_mph":null,"peak_wind_direction_deg":null,"peak_wind_speed_mph":null,"wind_direction_deg":0,"wind_speed_mph":0,"label":"0 mph, N"}},{"type":"Feature","geometry":{"type":"Point","coordinates":[-119.62315,36.31145]},"properties":{"station_name":"Hanford Municipal Airport","last_updated":"2025-01-13T07:22:09.356Z","station_id":"KHJO","dew_point_temp_f":31.95,"wet_bulb_temp_f":null,"air_temp_f":35.6,"relative_humidity_pct":86.58,"wind_cardinal_direction":"N","wind_gust_mph":null,"peak_wind_direction_deg":null,"peak_wind_speed_mph":null,"wind_direction_deg":0,"wind_speed_mph":0,"label":"0 mph, N"}},{"type":"Feature","geometry":{"type":"Point","coordinates":[-122.11833,37.66083]},"properties":{"station_name":"Hayward, Hayward Air Terminal","last_updated":"2025-01-13T07:22:09.356Z","station_id":"KHWD","dew_point_temp_f":31.84,"wet_bulb_temp_f":null,"air_temp_f":48.2,"relative_humidity_pct":53.26,"wind_cardinal_direction":"ENE","wind_gust_mph":null,"peak_wind_direction_deg":null,"peak_wind_speed_mph":null,"wind_direction_deg":70,"wind_speed_mph":6.91,"label":"6.91 mph, ENE"}},{"type":"Feature","geometry":{"type":"Point","coordinates":[-115.57861,32.83417]},"properties":{"station_name":"Imperial, Imperial County Airport","last_updated":"2025-01-13T07:22:09.356Z","station_id":"KIPL","dew_point_temp_f":20.98,"wet_bulb_temp_f":null,"air_temp_f":39.2,"relative_humidity_pct":48.05,"wind_cardinal_direction":"W","wind_gust_mph":null,"peak_wind_direction_deg":null,"peak_wind_speed_mph":null,"wind_direction_deg":260,"wind_speed_mph":6.91,"label":"6.91 mph, W"}},{"type":"Feature","geometry":{"type":"Point","coordinates":[-118.38889,33.93806]},"properties":{"station_name":"Los Angeles, Los Angeles International Airport","last_updated":"2025-01-13T07:22:09.356Z","station_id":"KLAX","dew_point_temp_f":31.82,"wet_bulb_temp_f":null,"air_temp_f":51.8,"relative_humidity_pct":46.59,"wind_cardinal_direction":"NE","wind_gust_mph":null,"peak_wind_direction_deg":null,"peak_wind_speed_mph":null,"wind_direction_deg":50,"wind_speed_mph":3.45,"label":"3.45 mph, NE"}},{"type":"Feature","geometry":{"type":"Point","coordinates":[-118.14639,33.81167]},"properties":{"station_name":"Long Beach, Long Beach Airport","last_updated":"2025-01-13T07:22:09.356Z","station_id":"KLGB","dew_point_temp_f":26.38,"wet_bulb_temp_f":null,"air_temp_f":50,"relative_humidity_pct":39.93,"wind_cardinal_direction":"N","wind_gust_mph":null,"peak_wind_direction_deg":null,"peak_wind_speed_mph":null,"wind_direction_deg":0,"wind_speed_mph":0,"label":"0 mph, N"}},{"type":"Feature","geometry":{"type":"Point","coordinates":[-120.46667,34.66667]},"properties":{"station_name":"Lompoc, Lompoc Airport","last_updated":"2025-01-13T07:22:09.356Z","station_id":"KLPC","dew_point_temp_f":33.75,"wet_bulb_temp_f":null,"air_temp_f":37.4,"relative_humidity_pct":86.68,"wind_cardinal_direction":"E","wind_gust_mph":null,"peak_wind_direction_deg":null,"peak_wind_speed_mph":null,"wind_direction_deg":90,"wind_speed_mph":6.91,"label":"6.91 mph, E"}},{"type":"Feature","geometry":{"type":"Point","coordinates":[-121.81444,37.69278]},"properties":{"station_name":"Livermore, Livermore Municipal Airport","last_updated":"2025-01-13T07:22:09.356Z","station_id":"KLVK","dew_point_temp_f":28.27,"wet_bulb_temp_f":null,"air_temp_f":37.4,"relative_humidity_pct":69.64,"wind_cardinal_direction":"N","wind_gust_mph":null,"peak_wind_direction_deg":null,"peak_wind_speed_mph":null,"wind_direction_deg":0,"wind_speed_mph":0,"label":"0 mph, N"}},{"type":"Feature","geometry":{"type":"Point","coordinates":[-120.11064,36.9851]},"properties":{"station_name":"Madera Municipal Airport","last_updated":"2025-01-13T07:22:09.356Z","station_id":"KMAE","dew_point_temp_f":35.55,"wet_bulb_temp_f":null,"air_temp_f":39.2,"relative_humidity_pct":86.79,"wind_cardinal_direction":"E","wind_gust_mph":null,"peak_wind_direction_deg":null,"peak_wind_speed_mph":null,"wind_direction_deg":80,"wind_speed_mph":4.6,"label":"4.6 mph, E"}},{"type":"Feature","geometry":{"type":"Point","coordinates":[-120.50778,37.28306]},"properties":{"station_name":"Merced Regional Airport","last_updated":"2025-01-13T07:22:09.356Z","station_id":"KMCE","dew_point_temp_f":33.75,"wet_bulb_temp_f":null,"air_temp_f":37.4,"relative_humidity_pct":86.68,"wind_cardinal_direction":"SE","wind_gust_mph":null,"peak_wind_direction_deg":null,"peak_wind_speed_mph":null,"wind_direction_deg":130,"wind_speed_mph":3.45,"label":"3.45 mph, SE"}},{"type":"Feature","geometry":{"type":"Point","coordinates":[-118.8423,37.6241]},"properties":{"station_name":"Mammoth Yosemite Airport","last_updated":"2025-01-13T07:22:09.356Z","station_id":"KMMH","dew_point_temp_f":10.2,"wet_bulb_temp_f":null,"air_temp_f":23,"relative_humidity_pct":57.86,"wind_cardinal_direction":"W","wind_gust_mph":null,"peak_wind_direction_deg":null,"peak_wind_speed_mph":null,"wind_direction_deg":270,"wind_speed_mph":16.11,"label":"16.11 mph, W"}},{"type":"Feature","geometry":{"type":"Point","coordinates":[-120.9549,37.62549]},"properties":{"station_name":"Modesto City-County Airport - Harry Sham Field","last_updated":"2025-01-13T07:22:09.356Z","station_id":"KMOD","dew_point_temp_f":31.89,"wet_bulb_temp_f":null,"air_temp_f":39.2,"relative_humidity_pct":75.14,"wind_cardinal_direction":"ESE","wind_gust_mph":null,"peak_wind_direction_deg":null,"peak_wind_speed_mph":null,"wind_direction_deg":110,"wind_speed_mph":3.45,"label":"3.45 mph, ESE"}},{"type":"Feature","geometry":{"type":"Point","coordinates":[-121.84875,36.59047]},"properties":{"station_name":"Monterey Regional Airport","last_updated":"2025-01-13T07:22:09.356Z","station_id":"KMRY","dew_point_temp_f":30.02,"wet_bulb_temp_f":null,"air_temp_f":46.4,"relative_humidity_pct":52.98,"wind_cardinal_direction":"N","wind_gust_mph":null,"peak_wind_direction_deg":null,"peak_wind_speed_mph":null,"wind_direction_deg":0,"wind_speed_mph":0,"label":"0 mph, N"}},{"type":"Feature","geometry":{"type":"Point","coordinates":[-117.13639,32.81444]},"properties":{"station_name":"San Diego, Montgomery Field","last_updated":"2025-01-13T07:22:09.356Z","station_id":"KMYF","dew_point_temp_f":22.77,"wet_bulb_temp_f":null,"air_temp_f":46.4,"relative_humidity_pct":39.32,"wind_cardinal_direction":"N","wind_gust_mph":null,"peak_wind_direction_deg":null,"peak_wind_speed_mph":null,"wind_direction_deg":0,"wind_speed_mph":0,"label":"0 mph, N"}},{"type":"Feature","geometry":{"type":"Point","coordinates":[-121.56972,39.09778]},"properties":{"station_name":"Marysville, Yuba County Airport","last_updated":"2025-01-13T07:22:09.356Z","station_id":"KMYV","dew_point_temp_f":30.02,"wet_bulb_temp_f":null,"air_temp_f":48.2,"relative_humidity_pct":49.51,"wind_cardinal_direction":"N","wind_gust_mph":null,"peak_wind_direction_deg":null,"peak_wind_speed_mph":null,"wind_direction_deg":0,"wind_speed_mph":0,"label":"0 mph, N"}},{"type":"Feature","geometry":{"type":"Point","coordinates":[-122.22115,37.72126]},"properties":{"station_name":"San Francisco Bay Oakland International Airport","last_updated":"2025-01-13T07:22:09.356Z","station_id":"KOAK","dew_point_temp_f":30.02,"wet_bulb_temp_f":null,"air_temp_f":48.2,"relative_humidity_pct":49.51,"wind_cardinal_direction":"N","wind_gust_mph":null,"peak_wind_direction_deg":null,"peak_wind_speed_mph":null,"wind_direction_deg":10,"wind_speed_mph":4.6,"label":"4.6 mph, N"}},{"type":"Feature","geometry":{"type":"Point","coordinates":[-117.35139,33.21806]},"properties":{"station_name":"Oceanside, Oceanside Municipal Airport","last_updated":"2025-01-13T07:22:09.356Z","station_id":"KOKB","dew_point_temp_f":null,"wet_bulb_temp_f":null,"air_temp_f":37.4,"relative_humidity_pct":null,"wind_cardinal_direction":"N","wind_gust_mph":null,"peak_wind_direction_deg":null,"peak_wind_speed_mph":null,"wind_direction_deg":0,"wind_speed_mph":0,"label":"0 mph, N"}},{"type":"Feature","geometry":{"type":"Point","coordinates":[-117.57685,34.05316]},"properties":{"station_name":"Ontario International Airport","last_updated":"2025-01-13T07:22:09.356Z","station_id":"KONT","dew_point_temp_f":10.24,"wet_bulb_temp_f":null,"air_temp_f":55.4,"relative_humidity_pct":16.31,"wind_cardinal_direction":"ENE","wind_gust_mph":null,"peak_wind_direction_deg":null,"peak_wind_speed_mph":null,"wind_direction_deg":70,"wind_speed_mph":9.21,"label":"9.21 mph, ENE"}},{"type":"Feature","geometry":{"type":"Point","coordinates":[-121.62223,39.49436]},"properties":{"station_name":"Oroville Municipal Airport","last_updated":"2025-01-13T07:22:09.356Z","station_id":"KOVE","dew_point_temp_f":26.4,"wet_bulb_temp_f":null,"air_temp_f":55.4,"relative_humidity_pct":32.75,"wind_cardinal_direction":"NNW","wind_gust_mph":null,"peak_wind_direction_deg":null,"peak_wind_speed_mph":null,"wind_direction_deg":340,"wind_speed_mph":4.6,"label":"4.6 mph, NNW"}},{"type":"Feature","geometry":{"type":"Point","coordinates":[-119.20306,34.20056]},"properties":{"station_name":"Oxnard, Oxnard Airport","last_updated":"2025-01-13T07:22:09.356Z","station_id":"KOXR","dew_point_temp_f":20.97,"wet_bulb_temp_f":null,"air_temp_f":48.2,"relative_humidity_pct":34.05,"wind_cardinal_direction":"NE","wind_gust_mph":null,"peak_wind_direction_deg":null,"peak_wind_speed_mph":null,"wind_direction_deg":50,"wind_speed_mph":3.45,"label":"3.45 mph, NE"}},{"type":"Feature","geometry":{"type":"Point","coordinates":[-118.08139,34.62972]},"properties":{"station_name":"Palmdale, Palmdale Production Flight Plant","last_updated":"2025-01-13T07:22:09.356Z","station_id":"KPMD","dew_point_temp_f":10.18,"wet_bulb_temp_f":null,"air_temp_f":26.6,"relative_humidity_pct":49.79,"wind_cardinal_direction":"E","wind_gust_mph":null,"peak_wind_direction_deg":null,"peak_wind_speed_mph":null,"wind_direction_deg":100,"wind_speed_mph":4.6,"label":"4.6 mph, E"}},{"type":"Feature","geometry":{"type":"Point","coordinates":[-120.62912,35.66941]},"properties":{"station_name":"Paso Robles Municipal Airport","last_updated":"2025-01-13T07:22:09.356Z","station_id":"KPRB","dew_point_temp_f":26.47,"wet_bulb_temp_f":null,"air_temp_f":35.6,"relative_humidity_pct":69.43,"wind_cardinal_direction":"E","wind_gust_mph":null,"peak_wind_direction_deg":null,"peak_wind_speed_mph":null,"wind_direction_deg":100,"wind_speed_mph":5.75,"label":"5.75 mph, E"}},{"type":"Feature","geometry":{"type":"Point","coordinates":[-116.50431,33.82219]},"properties":{"station_name":"Palm Springs Regional Airport","last_updated":"2025-01-13T07:22:09.356Z","station_id":"KPSP","dew_point_temp_f":13.8,"wet_bulb_temp_f":null,"air_temp_f":53.6,"relative_humidity_pct":20.43,"wind_cardinal_direction":"SW","wind_gust_mph":null,"peak_wind_direction_deg":null,"peak_wind_speed_mph":null,"wind_direction_deg":220,"wind_speed_mph":4.6,"label":"4.6 mph, SW"}},{"type":"Feature","geometry":{"type":"Point","coordinates":[-117.44511,33.95189]},"properties":{"station_name":"Riverside Municipal Airport","last_updated":"2025-01-13T07:22:09.356Z","station_id":"KRAL","dew_point_temp_f":12,"wet_bulb_temp_f":null,"air_temp_f":53.6,"relative_humidity_pct":18.86,"wind_cardinal_direction":"ENE","wind_gust_mph":null,"peak_wind_direction_deg":null,"peak_wind_speed_mph":null,"wind_direction_deg":60,"wind_speed_mph":4.6,"label":"4.6 mph, ENE"}},{"type":"Feature","geometry":{"type":"Point","coordinates":[-122.25222,40.15056]},"properties":{"station_name":"Red Bluff, Red Bluff Municipal Airport","last_updated":"2025-01-13T07:22:09.356Z","station_id":"KRBL","dew_point_temp_f":26.38,"wet_bulb_temp_f":null,"air_temp_f":51.8,"relative_humidity_pct":37.36,"wind_cardinal_direction":"NNE","wind_gust_mph":null,"peak_wind_direction_deg":null,"peak_wind_speed_mph":null,"wind_direction_deg":20,"wind_speed_mph":16.11,"label":"16.11 mph, NNE"}},{"type":"Feature","geometry":{"type":"Point","coordinates":[-122.2977,40.51461]},"properties":{"station_name":"Redding Municipal Airport","last_updated":"2025-01-13T07:22:09.356Z","station_id":"KRDD","dew_point_temp_f":24.58,"wet_bulb_temp_f":null,"air_temp_f":53.6,"relative_humidity_pct":32.45,"wind_cardinal_direction":"N","wind_gust_mph":24.17,"peak_wind_direction_deg":null,"peak_wind_speed_mph":null,"wind_direction_deg":10,"wind_speed_mph":18.41,"label":"18.41 mph (gusts 24.17), N"}},{"type":"Feature","geometry":{"type":"Point","coordinates":[-116.91583,33.0375]},"properties":{"station_name":"Ramona, Ramona Airport","last_updated":"2025-01-13T07:22:09.356Z","station_id":"KRNM","dew_point_temp_f":17.4,"wet_bulb_temp_f":null,"air_temp_f":32,"relative_humidity_pct":54.8,"wind_cardinal_direction":"N","wind_gust_mph":null,"peak_wind_direction_deg":null,"peak_wind_speed_mph":null,"wind_direction_deg":0,"wind_speed_mph":0,"label":"0 mph, N"}},{"type":"Feature","geometry":{"type":"Point","coordinates":[-121.49597,38.50674]},"properties":{"station_name":"Sacramento Executive Airport","last_updated":"2025-01-13T07:22:09.356Z","station_id":"KSAC","dew_point_temp_f":33.67,"wet_bulb_temp_f":null,"air_temp_f":42.8,"relative_humidity_pct":70.27,"wind_cardinal_direction":"N","wind_gust_mph":null,"peak_wind_direction_deg":null,"peak_wind_speed_mph":null,"wind_direction_deg":0,"wind_speed_mph":0,"label":"0 mph, N"}},{"type":"Feature","geometry":{"type":"Point","coordinates":[-117.18306,32.73361]},"properties":{"station_name":"San Diego International Airport","last_updated":"2025-01-13T07:22:09.356Z","station_id":"KSAN","dew_point_temp_f":35.47,"wet_bulb_temp_f":null,"air_temp_f":46.4,"relative_humidity_pct":65.82,"wind_cardinal_direction":"N","wind_gust_mph":null,"peak_wind_direction_deg":null,"peak_wind_speed_mph":null,"wind_direction_deg":0,"wind_speed_mph":0,"label":"0 mph, N"}},{"type":"Feature","geometry":{"type":"Point","coordinates":[-119.84361,34.42611]},"properties":{"station_name":"Santa Barbara, Santa Barbara Municipal Airport","last_updated":"2025-01-13T07:22:09.356Z","station_id":"KSBA","dew_point_temp_f":26.44,"wet_bulb_temp_f":null,"air_temp_f":39.2,"relative_humidity_pct":60.26,"wind_cardinal_direction":"N","wind_gust_mph":null,"peak_wind_direction_deg":null,"peak_wind_speed_mph":null,"wind_direction_deg":10,"wind_speed_mph":3.45,"label":"3.45 mph, N"}},{"type":"Feature","geometry":{"type":"Point","coordinates":[-120.63611,35.23611]},"properties":{"station_name":"San Luis Obispo, San Luis Obispo County-Mc Chesney Field","last_updated":"2025-01-13T07:22:09.356Z","station_id":"KSBP","dew_point_temp_f":31.87,"wet_bulb_temp_f":null,"air_temp_f":41,"relative_humidity_pct":70.06,"wind_cardinal_direction":"N","wind_gust_mph":null,"peak_wind_direction_deg":null,"peak_wind_speed_mph":null,"wind_direction_deg":0,"wind_speed_mph":0,"label":"0 mph, N"}},{"type":"Feature","geometry":{"type":"Point","coordinates":[-121.22361,37.88972]},"properties":{"station_name":"Stockton, Stockton Metropolitan Airport","last_updated":"2025-01-13T07:22:09.356Z","station_id":"KSCK","dew_point_temp_f":31.89,"wet_bulb_temp_f":null,"air_temp_f":39.2,"relative_humidity_pct":75.14,"wind_cardinal_direction":"ESE","wind_gust_mph":null,"peak_wind_direction_deg":null,"peak_wind_speed_mph":null,"wind_direction_deg":120,"wind_speed_mph":6.91,"label":"6.91 mph, ESE"}},{"type":"Feature","geometry":{"type":"Point","coordinates":[-116.99306,32.57528]},"properties":{"station_name":"San Diego, Brown Field Municipal Airport","last_updated":"2025-01-13T07:22:09.356Z","station_id":"KSDM","dew_point_temp_f":15.55,"wet_bulb_temp_f":null,"air_temp_f":48.2,"relative_humidity_pct":26.99,"wind_cardinal_direction":"ESE","wind_gust_mph":null,"peak_wind_direction_deg":null,"peak_wind_speed_mph":null,"wind_direction_deg":120,"wind_speed_mph":5.75,"label":"5.75 mph, ESE"}},{"type":"Feature","geometry":{"type":"Point","coordinates":[-122.36558,37.61961]},"properties":{"station_name":"San Francisco, San Francisco International Airport","last_updated":"2025-01-13T07:22:09.356Z","station_id":"KSFO","dew_point_temp_f":49.98,"wet_bulb_temp_f":null,"air_temp_f":51.8,"relative_humidity_pct":93.55,"wind_cardinal_direction":"WNW","wind_gust_mph":null,"peak_wind_direction_deg":null,"peak_wind_speed_mph":null,"wind_direction_deg":290,"wind_speed_mph":6.91,"label":"6.91 mph, WNW"}},{"type":"Feature","geometry":{"type":"Point","coordinates":[-122.46817,41.77375]},"properties":{"station_name":"Montague Siskiyou County Airport","last_updated":"2025-01-13T07:22:09.356Z","station_id":"KSIY","dew_point_temp_f":26.49,"wet_bulb_temp_f":null,"air_temp_f":33.8,"relative_humidity_pct":74.6,"wind_cardinal_direction":"NNE","wind_gust_mph":null,"peak_wind_direction_deg":null,"peak_wind_speed_mph":null,"wind_direction_deg":20,"wind_speed_mph":5.75,"label":"5.75 mph, NNE"}},{"type":"Feature","geometry":{"type":"Point","coordinates":[-121.92417,37.35917]},"properties":{"station_name":"San Jose, San Jose International Airport","last_updated":"2025-01-13T07:22:09.356Z","station_id":"KSJC","dew_point_temp_f":26.38,"wet_bulb_temp_f":null,"air_temp_f":48.2,"relative_humidity_pct":42.71,"wind_cardinal_direction":"SSE","wind_gust_mph":null,"peak_wind_direction_deg":null,"peak_wind_speed_mph":null,"wind_direction_deg":150,"wind_speed_mph":4.6,"label":"4.6 mph, SSE"}},{"type":"Feature","geometry":{"type":"Point","coordinates":[-121.59479,38.70071]},"properties":{"station_name":"Sacramento International Airport","last_updated":"2025-01-13T07:22:09.356Z","station_id":"KSMF","dew_point_temp_f":37.31,"wet_bulb_temp_f":null,"air_temp_f":44.6,"relative_humidity_pct":75.67,"wind_cardinal_direction":"NNE","wind_gust_mph":null,"peak_wind_direction_deg":null,"peak_wind_speed_mph":null,"wind_direction_deg":20,"wind_speed_mph":6.91,"label":"6.91 mph, NNE"}},{"type":"Feature","geometry":{"type":"Point","coordinates":[-118.45139,34.01583]},"properties":{"station_name":"Santa Monica, Santa Monica Municipal Airport","last_updated":"2025-01-13T07:22:09.356Z","station_id":"KSMO","dew_point_temp_f":19.17,"wet_bulb_temp_f":null,"air_temp_f":50,"relative_humidity_pct":29.49,"wind_cardinal_direction":"N","wind_gust_mph":null,"peak_wind_direction_deg":null,"peak_wind_speed_mph":null,"wind_direction_deg":0,"wind_speed_mph":0,"label":"0 mph, N"}},{"type":"Feature","geometry":{"type":"Point","coordinates":[-120.45212,34.89408]},"properties":{"station_name":"Santa Maria Public Airport/Capt G Allan Hancock Field","last_updated":"2025-01-13T07:22:09.356Z","station_id":"KSMX","dew_point_temp_f":31.86,"wet_bulb_temp_f":null,"air_temp_f":42.8,"relative_humidity_pct":65.37,"wind_cardinal_direction":"N","wind_gust_mph":null,"peak_wind_direction_deg":null,"peak_wind_speed_mph":null,"wind_direction_deg":0,"wind_speed_mph":0,"label":"0 mph, N"}},{"type":"Feature","geometry":{"type":"Point","coordinates":[-117.8674,33.6798]},"properties":{"station_name":"John Wayne-Orange County Airport","last_updated":"2025-01-13T07:22:09.356Z","station_id":"KSNA","dew_point_temp_f":12.09,"wet_bulb_temp_f":null,"air_temp_f":60.8,"relative_humidity_pct":14.56,"wind_cardinal_direction":"E","wind_gust_mph":null,"peak_wind_direction_deg":null,"peak_wind_speed_mph":null,"wind_direction_deg":80,"wind_speed_mph":8.06,"label":"8.06 mph, E"}},{"type":"Feature","geometry":{"type":"Point","coordinates":[-121.60806,36.66361]},"properties":{"station_name":"Salinas, Salinas Municipal Airport","last_updated":"2025-01-13T07:22:09.356Z","station_id":"KSNS","dew_point_temp_f":33.69,"wet_bulb_temp_f":null,"air_temp_f":41,"relative_humidity_pct":75.32,"wind_cardinal_direction":"N","wind_gust_mph":null,"peak_wind_direction_deg":null,"peak_wind_speed_mph":null,"wind_direction_deg":0,"wind_speed_mph":0,"label":"0 mph, N"}},{"type":"Feature","geometry":{"type":"Point","coordinates":[-122.25,37.51667]},"properties":{"station_name":"San Carlos Airport","last_updated":"2025-01-13T07:22:09.356Z","station_id":"KSQL","dew_point_temp_f":40.93,"wet_bulb_temp_f":null,"air_temp_f":46.4,"relative_humidity_pct":81.34,"wind_cardinal_direction":"N","wind_gust_mph":null,"peak_wind_direction_deg":null,"peak_wind_speed_mph":null,"wind_direction_deg":0,"wind_speed_mph":0,"label":"0 mph, N"}},{"type":"Feature","geometry":{"type":"Point","coordinates":[-122.81667,38.5]},"properties":{"station_name":"Santa Rosa, Santa Rosa Sonoma County Airport","last_updated":"2025-01-13T07:22:09.356Z","station_id":"KSTS","dew_point_temp_f":37.38,"wet_bulb_temp_f":null,"air_temp_f":39.2,"relative_humidity_pct":93.19,"wind_cardinal_direction":"W","wind_gust_mph":null,"peak_wind_direction_deg":null,"peak_wind_speed_mph":null,"wind_direction_deg":280,"wind_speed_mph":4.6,"label":"4.6 mph, W"}},{"type":"Feature","geometry":{"type":"Point","coordinates":[-119.99615,38.89836]},"properties":{"station_name":"South Lake Tahoe, Lake Tahoe Airport","last_updated":"2025-01-13T07:22:09.356Z","station_id":"KTVL","dew_point_temp_f":15.64,"wet_bulb_temp_f":null,"air_temp_f":26.6,"relative_humidity_pct":63.2,"wind_cardinal_direction":"E","wind_gust_mph":null,"peak_wind_direction_deg":null,"peak_wind_speed_mph":null,"wind_direction_deg":80,"wind_speed_mph":5.75,"label":"5.75 mph, E"}},{"type":"Feature","geometry":{"type":"Point","coordinates":[-123.20011,39.12783]},"properties":{"station_name":"Ukiah Municipal Airport","last_updated":"2025-01-13T07:22:09.356Z","station_id":"KUKI","dew_point_temp_f":37.35,"wet_bulb_temp_f":null,"air_temp_f":41,"relative_humidity_pct":86.89,"wind_cardinal_direction":"N","wind_gust_mph":null,"peak_wind_direction_deg":null,"peak_wind_speed_mph":null,"wind_direction_deg":0,"wind_speed_mph":0,"label":"0 mph, N"}},{"type":"Feature","geometry":{"type":"Point","coordinates":[-121.95853,38.37755]},"properties":{"station_name":"Vacaville Nut Tree Airport","last_updated":"2025-01-13T07:22:09.356Z","station_id":"KVCB","dew_point_temp_f":28.2,"wet_bulb_temp_f":null,"air_temp_f":55.4,"relative_humidity_pct":35.27,"wind_cardinal_direction":"N","wind_gust_mph":null,"peak_wind_direction_deg":null,"peak_wind_speed_mph":null,"wind_direction_deg":350,"wind_speed_mph":11.51,"label":"11.51 mph, N"}},{"type":"Feature","geometry":{"type":"Point","coordinates":[-119.4,36.31667]},"properties":{"station_name":"Visalia, Visalia Municipal Airport","last_updated":"2025-01-13T07:22:09.356Z","station_id":"KVIS","dew_point_temp_f":33.75,"wet_bulb_temp_f":null,"air_temp_f":37.4,"relative_humidity_pct":86.68,"wind_cardinal_direction":"N","wind_gust_mph":null,"peak_wind_direction_deg":null,"peak_wind_speed_mph":null,"wind_direction_deg":0,"wind_speed_mph":0,"label":"0 mph, N"}},{"type":"Feature","geometry":{"type":"Point","coordinates":[-118.49083,34.2125]},"properties":{"station_name":"Van Nuys, Van Nuys Airport","last_updated":"2025-01-13T07:22:09.356Z","station_id":"KVNY","dew_point_temp_f":13.77,"wet_bulb_temp_f":null,"air_temp_f":48.2,"relative_humidity_pct":24.95,"wind_cardinal_direction":"W","wind_gust_mph":null,"peak_wind_direction_deg":null,"peak_wind_speed_mph":null,"wind_direction_deg":270,"wind_speed_mph":3.45,"label":"3.45 mph, W"}},{"type":"Feature","geometry":{"type":"Point","coordinates":[-118.21251,34.74123]},"properties":{"station_name":"General Wm J Fox Airfield","last_updated":"2025-01-13T07:22:09.356Z","station_id":"KWJF","dew_point_temp_f":2.93,"wet_bulb_temp_f":null,"air_temp_f":24.8,"relative_humidity_pct":38.65,"wind_cardinal_direction":"WNW","wind_gust_mph":null,"peak_wind_direction_deg":null,"peak_wind_speed_mph":null,"wind_direction_deg":290,"wind_speed_mph":3.45,"label":"3.45 mph, WNW"}},{"type":"Feature","geometry":{"type":"Point","coordinates":[-120.31582,38.4819]},"properties":{"station_name":"BEAVER","last_updated":"2025-01-13T07:22:09.356Z","station_id":"COKC1","dew_point_temp_f":10.33,"wet_bulb_temp_f":null,"air_temp_f":37,"relative_humidity_pct":33,"wind_cardinal_direction":"NW","wind_gust_mph":12,"peak_wind_direction_deg":116,"peak_wind_speed_mph":12,"wind_direction_deg":306,"wind_speed_mph":3,"label":"3 mph (gusts 12), NW"}},{"type":"Feature","geometry":{"type":"Point","coordinates":[-121.84389,37.55306]},"properties":{"station_name":"CALAVERAS ROAD","last_updated":"2025-01-13T07:22:09.356Z","station_id":"PEAC1","dew_point_temp_f":22.1,"wet_bulb_temp_f":null,"air_temp_f":52,"relative_humidity_pct":31,"wind_cardinal_direction":"NE","wind_gust_mph":16,"peak_wind_direction_deg":50,"peak_wind_speed_mph":16,"wind_direction_deg":53,"wind_speed_mph":12,"label":"12 mph (gusts 16), NE"}},{"type":"Feature","geometry":{"type":"Point","coordinates":[-122.82553,41.29974]},"properties":{"station_name":"CALLAHAN #2","last_updated":"2025-01-13T07:22:09.356Z","station_id":"CLNC1","dew_point_temp_f":24.17,"wet_bulb_temp_f":null,"air_temp_f":33,"relative_humidity_pct":70,"wind_cardinal_direction":"E","wind_gust_mph":12,"peak_wind_direction_deg":58,"peak_wind_speed_mph":12,"wind_direction_deg":86,"wind_speed_mph":7,"label":"7 mph (gusts 12), E"}},{"type":"Feature","geometry":{"type":"Point","coordinates":[-121.11725,39.30351]},"properties":{"station_name":"READER RANCH","last_updated":"2025-01-13T07:22:09.356Z","station_id":"RRRC1","dew_point_temp_f":16.95,"wet_bulb_temp_f":null,"air_temp_f":47,"relative_humidity_pct":30,"wind_cardinal_direction":"NE","wind_gust_mph":12,"peak_wind_direction_deg":3,"peak_wind_speed_mph":12,"wind_direction_deg":44,"wind_speed_mph":4,"label":"4 mph (gusts 12), NE"}},{"type":"Feature","geometry":{"type":"Point","coordinates":[-120.48975,38.28442]},"properties":{"station_name":"BANNER ROAD","last_updated":"2025-01-13T07:22:09.356Z","station_id":"ESPC1","dew_point_temp_f":33.28,"wet_bulb_temp_f":null,"air_temp_f":39,"relative_humidity_pct":80,"wind_cardinal_direction":"ENE","wind_gust_mph":7,"peak_wind_direction_deg":84,"peak_wind_speed_mph":7,"wind_direction_deg":70,"wind_speed_mph":3,"label":"3 mph (gusts 7), ENE"}},{"type":"Feature","geometry":{"type":"Point","coordinates":[-123.3432,40.50552]},"properties":{"station_name":"FRIEND MTN.","last_updated":"2025-01-13T07:22:09.356Z","station_id":"FMOC1","dew_point_temp_f":21.81,"wet_bulb_temp_f":null,"air_temp_f":34,"relative_humidity_pct":61,"wind_cardinal_direction":"ENE","wind_gust_mph":5,"peak_wind_direction_deg":39,"peak_wind_speed_mph":5,"wind_direction_deg":57,"wind_speed_mph":2,"label":"2 mph (gusts 5), ENE"}},{"type":"Feature","geometry":{"type":"Point","coordinates":[-118.22678,35.29489]},"properties":{"station_name":"JAWBONE","last_updated":"2025-01-13T07:22:09.356Z","station_id":"JWBC1","dew_point_temp_f":7.68,"wet_bulb_temp_f":null,"air_temp_f":34,"relative_humidity_pct":33,"wind_cardinal_direction":"ESE","wind_gust_mph":13,"peak_wind_direction_deg":114,"peak_wind_speed_mph":13,"wind_direction_deg":113,"wind_speed_mph":8,"label":"8 mph (gusts 13), ESE"}},{"type":"Feature","geometry":{"type":"Point","coordinates":[-122.1097,41.8019]},"properties":{"station_name":"JUANITA LAKE","last_updated":"2025-01-13T07:22:09.356Z","station_id":"JTAC1","dew_point_temp_f":20.3,"wet_bulb_temp_f":null,"air_temp_f":26,"relative_humidity_pct":79,"wind_cardinal_direction":"NNW","wind_gust_mph":5.99,"peak_wind_direction_deg":51,"peak_wind_speed_mph":5.99,"wind_direction_deg":327,"wind_speed_mph":1,"label":"1 mph (gusts 5.99), NNW"}},{"type":"Feature","geometry":{"type":"Point","coordinates":[-116.71694,33.70833]},"properties":{"station_name":"KEENWILD","last_updated":"2025-01-13T07:22:09.356Z","station_id":"KNWC1","dew_point_temp_f":3.33,"wet_bulb_temp_f":null,"air_temp_f":37,"relative_humidity_pct":24,"wind_cardinal_direction":"E","wind_gust_mph":14.01,"peak_wind_direction_deg":116,"peak_wind_speed_mph":14.01,"wind_direction_deg":99,"wind_speed_mph":7,"label":"7 mph (gusts 14.01), E"}},{"type":"Feature","geometry":{"type":"Point","coordinates":[-121.26669,38.88103]},"properties":{"station_name":"LINCOLN","last_updated":"2025-01-13T07:22:09.356Z","station_id":"LICC1","dew_point_temp_f":34.38,"wet_bulb_temp_f":null,"air_temp_f":46,"relative_humidity_pct":64,"wind_cardinal_direction":"ENE","wind_gust_mph":5.99,"peak_wind_direction_deg":67,"peak_wind_speed_mph":5.99,"wind_direction_deg":72,"wind_speed_mph":3,"label":"3 mph (gusts 5.99), ENE"}},{"type":"Feature","geometry":{"type":"Point","coordinates":[-117.17569,35.15428]},"properties":{"station_name":"OPAL MOUNTAIN","last_updated":"2025-01-13T07:22:09.356Z","station_id":"OPLC1","dew_point_temp_f":9.28,"wet_bulb_temp_f":null,"air_temp_f":40,"relative_humidity_pct":28,"wind_cardinal_direction":"NNE","wind_gust_mph":9,"peak_wind_direction_deg":27,"peak_wind_speed_mph":9,"wind_direction_deg":23,"wind_speed_mph":7,"label":"7 mph (gusts 9), NNE"}},{"type":"Feature","geometry":{"type":"Point","coordinates":[-120.64222,40.24611]},"properties":{"station_name":"PIERCE","last_updated":"2025-01-13T07:22:09.356Z","station_id":"PIEC1","dew_point_temp_f":16.07,"wet_bulb_temp_f":null,"air_temp_f":26,"relative_humidity_pct":66,"wind_cardinal_direction":"SW","wind_gust_mph":31,"peak_wind_direction_deg":48,"peak_wind_speed_mph":31,"wind_direction_deg":230,"wind_speed_mph":5,"label":"5 mph (gusts 31), SW"}},{"type":"Feature","geometry":{"type":"Point","coordinates":[-121.77056,37.44306]},"properties":{"station_name":"POVERTY","last_updated":"2025-01-13T07:22:09.356Z","station_id":"MIPC1","dew_point_temp_f":16.16,"wet_bulb_temp_f":null,"air_temp_f":47,"relative_humidity_pct":29,"wind_cardinal_direction":"ENE","wind_gust_mph":5,"peak_wind_direction_deg":63,"peak_wind_speed_mph":5,"wind_direction_deg":75,"wind_speed_mph":3,"label":"3 mph (gusts 5), ENE"}},{"type":"Feature","geometry":{"type":"Point","coordinates":[-122.298,37.47312]},"properties":{"station_name":"PULGAS","last_updated":"2025-01-13T07:22:09.356Z","station_id":"PUGC1","dew_point_temp_f":30.13,"wet_bulb_temp_f":null,"air_temp_f":46,"relative_humidity_pct":54,"wind_cardinal_direction":"WNW","wind_gust_mph":5.99,"peak_wind_direction_deg":312,"peak_wind_speed_mph":5.99,"wind_direction_deg":298,"wind_speed_mph":4,"label":"4 mph (gusts 5.99), WNW"}},{"type":"Feature","geometry":{"type":"Point","coordinates":[-120.94194,39.97333]},"properties":{"station_name":"QUINCY RD","last_updated":"2025-01-13T07:22:09.356Z","station_id":"QYRC1","dew_point_temp_f":18.97,"wet_bulb_temp_f":null,"air_temp_f":36,"relative_humidity_pct":50,"wind_cardinal_direction":"W","wind_gust_mph":11,"peak_wind_direction_deg":108,"peak_wind_speed_mph":11,"wind_direction_deg":263,"wind_speed_mph":1,"label":"1 mph (gusts 11), W"}},{"type":"Feature","geometry":{"type":"Point","coordinates":[-121.46251,41.42711]},"properties":{"station_name":"ROUND MOUNTAIN","last_updated":"2025-01-13T07:22:09.356Z","station_id":"RNDC1","dew_point_temp_f":19.02,"wet_bulb_temp_f":null,"air_temp_f":25,"relative_humidity_pct":78,"wind_cardinal_direction":"NE","wind_gust_mph":21,"peak_wind_direction_deg":43,"peak_wind_speed_mph":21,"wind_direction_deg":48,"wind_speed_mph":8,"label":"8 mph (gusts 21), NE"}},{"type":"Feature","geometry":{"type":"Point","coordinates":[-119.03032,33.48743]},"properties":{"station_name":"SANTA BARBARA","last_updated":"2025-01-13T07:22:09.356Z","station_id":"SBIC1","dew_point_temp_f":42.24,"wet_bulb_temp_f":null,"air_temp_f":57,"relative_humidity_pct":58,"wind_cardinal_direction":"E","wind_gust_mph":12,"peak_wind_direction_deg":279,"peak_wind_speed_mph":12,"wind_direction_deg":82,"wind_speed_mph":5,"label":"5 mph (gusts 12), E"}},{"type":"Feature","geometry":{"type":"Point","coordinates":[-119.71626,33.99298]},"properties":{"station_name":"SANTA CRUZ ISLAND","last_updated":"2025-01-13T07:22:09.356Z","station_id":"SNCC1","dew_point_temp_f":20.75,"wet_bulb_temp_f":null,"air_temp_f":48,"relative_humidity_pct":34,"wind_cardinal_direction":"ESE","wind_gust_mph":5.99,"peak_wind_direction_deg":235,"peak_wind_speed_mph":5.99,"wind_direction_deg":109,"wind_speed_mph":1,"label":"1 mph (gusts 5.99), ESE"}},{"type":"Feature","geometry":{"type":"Point","coordinates":[-121.58433,40.92678]},"properties":{"station_name":"SOLDIER MTN","last_updated":"2025-01-13T07:22:09.356Z","station_id":"SDRC1","dew_point_temp_f":21.15,"wet_bulb_temp_f":null,"air_temp_f":35,"relative_humidity_pct":57,"wind_cardinal_direction":"ENE","wind_gust_mph":21,"peak_wind_direction_deg":80,"peak_wind_speed_mph":21,"wind_direction_deg":76,"wind_speed_mph":10,"label":"10 mph (gusts 21), ENE"}},{"type":"Feature","geometry":{"type":"Point","coordinates":[-123.49267,41.39007]},"properties":{"station_name":"SOMES BAR","last_updated":"2025-01-13T07:22:09.356Z","station_id":"SMBC1","dew_point_temp_f":32.31,"wet_bulb_temp_f":null,"air_temp_f":38,"relative_humidity_pct":80,"wind_cardinal_direction":"S","wind_gust_mph":14.01,"peak_wind_direction_deg":14,"peak_wind_speed_mph":14.01,"wind_direction_deg":189,"wind_speed_mph":2,"label":"2 mph (gusts 14.01), S"}},{"type":"Feature","geometry":{"type":"Point","coordinates":[-122.43639,37.5625]},"properties":{"station_name":"SPRING VALLEY","last_updated":"2025-01-13T07:22:09.356Z","station_id":"HSPC1","dew_point_temp_f":43.63,"wet_bulb_temp_f":null,"air_temp_f":45,"relative_humidity_pct":95,"wind_cardinal_direction":"WNW","wind_gust_mph":13,"peak_wind_direction_deg":258,"peak_wind_speed_mph":13,"wind_direction_deg":292,"wind_speed_mph":2,"label":"2 mph (gusts 13), WNW"}},{"type":"Feature","geometry":{"type":"Point","coordinates":[-117.00859,33.23701]},"properties":{"station_name":"VALLEY CENTER","last_updated":"2025-01-13T07:22:09.356Z","station_id":"VLCC1","dew_point_temp_f":11.01,"wet_bulb_temp_f":null,"air_temp_f":46,"relative_humidity_pct":24,"wind_cardinal_direction":"SSE","wind_gust_mph":0,"peak_wind_direction_deg":27,"peak_wind_speed_mph":0,"wind_direction_deg":149,"wind_speed_mph":1,"label":"1 mph (gusts 0), SSE"}},{"type":"Feature","geometry":{"type":"Point","coordinates":[-115.83969,33.50536]},"properties":{"station_name":"DOS PALMAS","last_updated":"2025-01-13T07:22:09.356Z","station_id":"DPMC1","dew_point_temp_f":10.45,"wet_bulb_temp_f":null,"air_temp_f":53,"relative_humidity_pct":18,"wind_cardinal_direction":"N","wind_gust_mph":10,"peak_wind_direction_deg":342,"peak_wind_speed_mph":10,"wind_direction_deg":355,"wind_speed_mph":7,"label":"7 mph (gusts 10), N"}},{"type":"Feature","geometry":{"type":"Point","coordinates":[-118.70172,36.17529]},"properties":{"station_name":"OAK OPENING","last_updated":"2025-01-13T07:22:09.356Z","station_id":"OORC1","dew_point_temp_f":22.15,"wet_bulb_temp_f":null,"air_temp_f":37,"relative_humidity_pct":55,"wind_cardinal_direction":"NW","wind_gust_mph":5,"peak_wind_direction_deg":40,"peak_wind_speed_mph":5,"wind_direction_deg":311,"wind_speed_mph":1,"label":"1 mph (gusts 5), NW"}},{"type":"Feature","geometry":{"type":"Point","coordinates":[-122.43483,40.91596]},"properties":{"station_name":"SUGARLOAF (SHF)","last_updated":"2025-01-13T07:22:09.356Z","station_id":"SLFC1","dew_point_temp_f":26.15,"wet_bulb_temp_f":null,"air_temp_f":34,"relative_humidity_pct":73,"wind_cardinal_direction":"N","wind_gust_mph":17,"peak_wind_direction_deg":358,"peak_wind_speed_mph":17,"wind_direction_deg":358,"wind_speed_mph":2,"label":"2 mph (gusts 17), N"}},{"type":"Feature","geometry":{"type":"Point","coordinates":[-116.95314,33.87817]},"properties":{"station_name":"HIGHLAND SPRINGS","last_updated":"2025-01-13T07:22:09.356Z","station_id":"HSGC1","dew_point_temp_f":8.87,"wet_bulb_temp_f":null,"air_temp_f":47,"relative_humidity_pct":21,"wind_cardinal_direction":"ENE","wind_gust_mph":22,"peak_wind_direction_deg":62,"peak_wind_speed_mph":22,"wind_direction_deg":57,"wind_speed_mph":7,"label":"7 mph (gusts 22), ENE"}},{"type":"Feature","geometry":{"type":"Point","coordinates":[-123.08056,39.03083]},"properties":{"station_name":"HOPLAND UC","last_updated":"2025-01-13T07:22:09.356Z","station_id":"HPDC1","dew_point_temp_f":31.03,"wet_bulb_temp_f":null,"air_temp_f":46,"relative_humidity_pct":56,"wind_cardinal_direction":"NE","wind_gust_mph":14.01,"peak_wind_direction_deg":45,"peak_wind_speed_mph":14.01,"wind_direction_deg":34,"wind_speed_mph":14.99,"label":"14.99 mph (gusts 14.01), NE"}},{"type":"Feature","geometry":{"type":"Point","coordinates":[-116.80528,33.93183]},"properties":{"station_name":"CABAZON","last_updated":"2025-01-13T07:22:09.356Z","station_id":"BAZC1","dew_point_temp_f":7.81,"wet_bulb_temp_f":null,"air_temp_f":47,"relative_humidity_pct":20,"wind_cardinal_direction":"ENE","wind_gust_mph":17,"peak_wind_direction_deg":63,"peak_wind_speed_mph":17,"wind_direction_deg":60,"wind_speed_mph":10,"label":"10 mph (gusts 17), ENE"}},{"type":"Feature","geometry":{"type":"Point","coordinates":[-117.5037,34.31599]},"properties":{"station_name":"MORMON ROCK","last_updated":"2025-01-13T07:22:09.356Z","station_id":"MNCC1","dew_point_temp_f":9.88,"wet_bulb_temp_f":null,"air_temp_f":35,"relative_humidity_pct":35,"wind_cardinal_direction":"WNW","wind_gust_mph":13,"peak_wind_direction_deg":296,"peak_wind_speed_mph":13,"wind_direction_deg":301,"wind_speed_mph":5.99,"label":"5.99 mph (gusts 13), WNW"}},{"type":"Feature","geometry":{"type":"Point","coordinates":[-120.86399,39.63614]},"properties":{"station_name":"SADDLEBACK","last_updated":"2025-01-13T07:22:09.356Z","station_id":"SLEC1","dew_point_temp_f":13.89,"wet_bulb_temp_f":null,"air_temp_f":23,"relative_humidity_pct":68,"wind_cardinal_direction":"NE","wind_gust_mph":32,"peak_wind_direction_deg":53,"peak_wind_speed_mph":32,"wind_direction_deg":34,"wind_speed_mph":14.01,"label":"14.01 mph (gusts 32), NE"}},{"type":"Feature","geometry":{"type":"Point","coordinates":[-116.85997,33.85636]},"properties":{"station_name":"POPPET FLAT","last_updated":"2025-01-13T07:22:09.356Z","station_id":"POPC1","dew_point_temp_f":6.66,"wet_bulb_temp_f":null,"air_temp_f":42,"relative_humidity_pct":23,"wind_cardinal_direction":"NE","wind_gust_mph":27,"peak_wind_direction_deg":49,"peak_wind_speed_mph":27,"wind_direction_deg":54,"wind_speed_mph":14.01,"label":"14.01 mph (gusts 27), NE"}},{"type":"Feature","geometry":{"type":"Point","coordinates":[-116.93908,33.60544]},"properties":{"station_name":"SAGE","last_updated":"2025-01-13T07:22:09.356Z","station_id":"HMMC1","dew_point_temp_f":5.52,"wet_bulb_temp_f":null,"air_temp_f":43,"relative_humidity_pct":21,"wind_cardinal_direction":"N","wind_gust_mph":10,"peak_wind_direction_deg":14,"peak_wind_speed_mph":10,"wind_direction_deg":3,"wind_speed_mph":8,"label":"8 mph (gusts 10), N"}},{"type":"Feature","geometry":{"type":"Point","coordinates":[-116.84103,32.60092]},"properties":{"station_name":"OTAY MOUNTAIN","last_updated":"2025-01-13T07:22:09.356Z","station_id":"OTYC1","dew_point_temp_f":6.96,"wet_bulb_temp_f":null,"air_temp_f":46,"relative_humidity_pct":20,"wind_cardinal_direction":"ESE","wind_gust_mph":14.99,"peak_wind_direction_deg":90,"peak_wind_speed_mph":14.99,"wind_direction_deg":104,"wind_speed_mph":10,"label":"10 mph (gusts 14.99), ESE"}},{"type":"Feature","geometry":{"type":"Point","coordinates":[-118.76156,34.47394]},"properties":{"station_name":"TEMESCAL (LPF)","last_updated":"2025-01-13T07:22:09.356Z","station_id":"TCLC1","dew_point_temp_f":15.3,"wet_bulb_temp_f":null,"air_temp_f":46,"relative_humidity_pct":29,"wind_cardinal_direction":"ESE","wind_gust_mph":5,"peak_wind_direction_deg":84,"peak_wind_speed_mph":5,"wind_direction_deg":118,"wind_speed_mph":2,"label":"2 mph (gusts 5), ESE"}},{"type":"Feature","geometry":{"type":"Point","coordinates":[-120.50939,39.14356]},"properties":{"station_name":"DUNCAN","last_updated":"2025-01-13T07:22:09.356Z","station_id":"DUCC1","dew_point_temp_f":6.75,"wet_bulb_temp_f":null,"air_temp_f":27,"relative_humidity_pct":42,"wind_cardinal_direction":"E","wind_gust_mph":29,"peak_wind_direction_deg":85,"peak_wind_speed_mph":29,"wind_direction_deg":86,"wind_speed_mph":20,"label":"20 mph (gusts 29), E"}},{"type":"Feature","geometry":{"type":"Point","coordinates":[-117.48028,34.23389]},"properties":{"station_name":"LYTLE CREEK","last_updated":"2025-01-13T07:22:09.356Z","station_id":"LTLC1","dew_point_temp_f":9.21,"wet_bulb_temp_f":null,"air_temp_f":45,"relative_humidity_pct":23,"wind_cardinal_direction":"W","wind_gust_mph":12,"peak_wind_direction_deg":247,"peak_wind_speed_mph":12,"wind_direction_deg":281,"wind_speed_mph":5,"label":"5 mph (gusts 12), W"}},{"type":"Feature","geometry":{"type":"Point","coordinates":[-116.84139,33.74028]},"properties":{"station_name":"CRANSTON","last_updated":"2025-01-13T07:22:09.356Z","station_id":"CNSC1","dew_point_temp_f":5.68,"wet_bulb_temp_f":null,"air_temp_f":42,"relative_humidity_pct":22,"wind_cardinal_direction":"ENE","wind_gust_mph":8,"peak_wind_direction_deg":109,"peak_wind_speed_mph":8,"wind_direction_deg":76,"wind_speed_mph":3,"label":"3 mph (gusts 8), ENE"}},{"type":"Feature","geometry":{"type":"Point","coordinates":[-120.80298,35.8644]},"properties":{"station_name":"BRADLEY","last_updated":"2025-01-13T07:22:09.356Z","station_id":"RBYC1","dew_point_temp_f":23.59,"wet_bulb_temp_f":null,"air_temp_f":31,"relative_humidity_pct":74,"wind_cardinal_direction":"SE","wind_gust_mph":3,"peak_wind_direction_deg":105,"peak_wind_speed_mph":3,"wind_direction_deg":128,"wind_speed_mph":2,"label":"2 mph (gusts 3), SE"}},{"type":"Feature","geometry":{"type":"Point","coordinates":[-121.36216,36.8422]},"properties":{"station_name":"HOLLISTER","last_updated":"2025-01-13T07:22:09.356Z","station_id":"HSEC1","dew_point_temp_f":25.38,"wet_bulb_temp_f":null,"air_temp_f":44,"relative_humidity_pct":48,"wind_cardinal_direction":"SE","wind_gust_mph":12,"peak_wind_direction_deg":144,"peak_wind_speed_mph":12,"wind_direction_deg":135,"wind_speed_mph":2,"label":"2 mph (gusts 12), SE"}},{"type":"Feature","geometry":{"type":"Point","coordinates":[-122.9908,40.73877]},"properties":{"station_name":"Oregon Mtn","last_updated":"2025-01-13T07:22:09.356Z","station_id":"CTOMS","dew_point_temp_f":24.91,"wet_bulb_temp_f":null,"air_temp_f":38.12,"relative_humidity_pct":59,"wind_cardinal_direction":"ENE","wind_gust_mph":5.14,"peak_wind_direction_deg":null,"peak_wind_speed_mph":null,"wind_direction_deg":69,"wind_speed_mph":3.8,"label":"3.8 mph (gusts 5.14), ENE"}},{"type":"Feature","geometry":{"type":"Point","coordinates":[-122.27521,41.21896]},"properties":{"station_name":"Dunsmuir","last_updated":"2025-01-13T07:22:09.356Z","station_id":"CTDUN","dew_point_temp_f":25.3,"wet_bulb_temp_f":null,"air_temp_f":36.86,"relative_humidity_pct":63,"wind_cardinal_direction":"NE","wind_gust_mph":4.25,"peak_wind_direction_deg":null,"peak_wind_speed_mph":null,"wind_direction_deg":40,"wind_speed_mph":2.46,"label":"2.46 mph (gusts 4.25), NE"}},{"type":"Feature","geometry":{"type":"Point","coordinates":[-122.3559,41.35411]},"properties":{"station_name":"Black Butte","last_updated":"2025-01-13T07:22:09.356Z","station_id":"CTBBS","dew_point_temp_f":23.88,"wet_bulb_temp_f":null,"air_temp_f":31.64,"relative_humidity_pct":73,"wind_cardinal_direction":"NNW","wind_gust_mph":6.94,"peak_wind_direction_deg":null,"peak_wind_speed_mph":null,"wind_direction_deg":336,"wind_speed_mph":3.58,"label":"3.58 mph (gusts 6.94), NNW"}},{"type":"Feature","geometry":{"type":"Point","coordinates":[-122.40218,41.42958]},"properties":{"station_name":"NorthWeed","last_updated":"2025-01-13T07:22:09.356Z","station_id":"CTWED","dew_point_temp_f":24.24,"wet_bulb_temp_f":null,"air_temp_f":29.12,"relative_humidity_pct":82,"wind_cardinal_direction":"SE","wind_gust_mph":2.68,"peak_wind_direction_deg":null,"peak_wind_speed_mph":null,"wind_direction_deg":142,"wind_speed_mph":2.68,"label":"2.68 mph (gusts 2.68), SE"}},{"type":"Feature","geometry":{"type":"Point","coordinates":[-122.21339,41.26848]},"properties":{"station_name":"Snowman","last_updated":"2025-01-13T07:22:09.356Z","station_id":"CTSNS","dew_point_temp_f":22.06,"wet_bulb_temp_f":null,"air_temp_f":26.6,"relative_humidity_pct":83,"wind_cardinal_direction":"W","wind_gust_mph":3.13,"peak_wind_direction_deg":null,"peak_wind_speed_mph":null,"wind_direction_deg":271,"wind_speed_mph":1.57,"label":"1.57 mph (gusts 3.13), W"}},{"type":"Feature","geometry":{"type":"Point","coordinates":[-122.56764,41.90631]},"properties":{"station_name":"Hornbrook","last_updated":"2025-01-13T07:22:09.356Z","station_id":"CTHRN","dew_point_temp_f":26.33,"wet_bulb_temp_f":null,"air_temp_f":34.88,"relative_humidity_pct":71,"wind_cardinal_direction":"NW","wind_gust_mph":14.53,"peak_wind_direction_deg":null,"peak_wind_speed_mph":null,"wind_direction_deg":312,"wind_speed_mph":8.5,"label":"8.5 mph (gusts 14.53), NW"}},{"type":"Feature","geometry":{"type":"Point","coordinates":[-121.48898,39.73591]},"properties":{"station_name":"JARBO GAP","last_updated":"2025-01-13T07:22:09.356Z","station_id":"JBGC1","dew_point_temp_f":18.77,"wet_bulb_temp_f":null,"air_temp_f":45,"relative_humidity_pct":35,"wind_cardinal_direction":"NE","wind_gust_mph":66,"peak_wind_direction_deg":34,"peak_wind_speed_mph":66,"wind_direction_deg":37,"wind_speed_mph":48,"label":"48 mph (gusts 66), NE"}},{"type":"Feature","geometry":{"type":"Point","coordinates":[-120.52785,38.62609]},"properties":{"station_name":"STEELY FORK","last_updated":"2025-01-13T07:22:09.356Z","station_id":"GZFC1","dew_point_temp_f":11.01,"wet_bulb_temp_f":null,"air_temp_f":42,"relative_humidity_pct":28,"wind_cardinal_direction":"SE","wind_gust_mph":2,"peak_wind_direction_deg":143,"peak_wind_speed_mph":2,"wind_direction_deg":135,"wind_speed_mph":1,"label":"1 mph (gusts 2), SE"}},{"type":"Feature","geometry":{"type":"Point","coordinates":[-117.00685,33.96352]},"properties":{"station_name":"BEAUMONT","last_updated":"2025-01-13T07:22:09.356Z","station_id":"BNTC1","dew_point_temp_f":8.22,"wet_bulb_temp_f":null,"air_temp_f":45,"relative_humidity_pct":22,"wind_cardinal_direction":"ENE","wind_gust_mph":8,"peak_wind_direction_deg":74,"peak_wind_speed_mph":8,"wind_direction_deg":61,"wind_speed_mph":5.99,"label":"5.99 mph (gusts 8), ENE"}},{"type":"Feature","geometry":{"type":"Point","coordinates":[-122.24333,40.44038]},"properties":{"station_name":"N6RZR-2 Anderson","last_updated":"2025-01-13T07:22:09.356Z","station_id":"AP525","dew_point_temp_f":27.88,"wet_bulb_temp_f":null,"air_temp_f":53,"relative_humidity_pct":38,"wind_cardinal_direction":"N","wind_gust_mph":14.99,"peak_wind_direction_deg":null,"peak_wind_speed_mph":null,"wind_direction_deg":0,"wind_speed_mph":5.99,"label":"5.99 mph (gusts 14.99), N"}},{"type":"Feature","geometry":{"type":"Point","coordinates":[-117.89374,33.77635]},"properties":{"station_name":"AD6NH Orange","last_updated":"2025-01-13T07:22:09.356Z","station_id":"AP541","dew_point_temp_f":17.49,"wet_bulb_temp_f":null,"air_temp_f":60,"relative_humidity_pct":19,"wind_cardinal_direction":"ESE","wind_gust_mph":11,"peak_wind_direction_deg":null,"peak_wind_speed_mph":null,"wind_direction_deg":117,"wind_speed_mph":9,"label":"9 mph (gusts 11), ESE"}},{"type":"Feature","geometry":{"type":"Point","coordinates":[-117.40833,34.36833]},"properties":{"station_name":"W6MAF Hesperia","last_updated":"2025-01-13T07:22:09.356Z","station_id":"AP904","dew_point_temp_f":0.75,"wet_bulb_temp_f":null,"air_temp_f":32,"relative_humidity_pct":26,"wind_cardinal_direction":"NW","wind_gust_mph":5,"peak_wind_direction_deg":null,"peak_wind_speed_mph":null,"wind_direction_deg":304,"wind_speed_mph":5,"label":"5 mph (gusts 5), NW"}},{"type":"Feature","geometry":{"type":"Point","coordinates":[-117.111,32.954]},"properties":{"station_name":"KG6MOZ San Diego","last_updated":"2025-01-13T07:22:09.356Z","station_id":"AP990","dew_point_temp_f":29.91,"wet_bulb_temp_f":null,"air_temp_f":43,"relative_humidity_pct":60,"wind_cardinal_direction":"SE","wind_gust_mph":5,"peak_wind_direction_deg":null,"peak_wind_speed_mph":null,"wind_direction_deg":137,"wind_speed_mph":2,"label":"2 mph (gusts 5), SE"}},{"type":"Feature","geometry":{"type":"Point","coordinates":[-123.5449,38.9561]},"properties":{"station_name":"CW0622 Manchester","last_updated":"2025-01-13T07:22:09.356Z","station_id":"C0622","dew_point_temp_f":33.53,"wet_bulb_temp_f":null,"air_temp_f":42,"relative_humidity_pct":72,"wind_cardinal_direction":"NE","wind_gust_mph":11,"peak_wind_direction_deg":null,"peak_wind_speed_mph":null,"wind_direction_deg":37,"wind_speed_mph":8,"label":"8 mph (gusts 11), NE"}},{"type":"Feature","geometry":{"type":"Point","coordinates":[-122.307,37.503]},"properties":{"station_name":"CW0791 Belmont","last_updated":"2025-01-13T07:22:09.356Z","station_id":"C0791","dew_point_temp_f":38.79,"wet_bulb_temp_f":null,"air_temp_f":49,"relative_humidity_pct":68,"wind_cardinal_direction":"SW","wind_gust_mph":4,"peak_wind_direction_deg":null,"peak_wind_speed_mph":null,"wind_direction_deg":220,"wind_speed_mph":1,"label":"1 mph (gusts 4), SW"}},{"type":"Feature","geometry":{"type":"Point","coordinates":[-122.276,38.02867]},"properties":{"station_name":"CW0879 Hercules","last_updated":"2025-01-13T07:22:09.356Z","station_id":"C0879","dew_point_temp_f":33.42,"wet_bulb_temp_f":null,"air_temp_f":43,"relative_humidity_pct":69,"wind_cardinal_direction":"SW","wind_gust_mph":3,"peak_wind_direction_deg":null,"peak_wind_speed_mph":null,"wind_direction_deg":218,"wind_speed_mph":2,"label":"2 mph (gusts 3), SW"}},{"type":"Feature","geometry":{"type":"Point","coordinates":[-117.70533,33.95233]},"properties":{"station_name":"CW0987 Chino Hills","last_updated":"2025-01-13T07:22:09.356Z","station_id":"C0987","dew_point_temp_f":18.54,"wet_bulb_temp_f":null,"air_temp_f":56,"relative_humidity_pct":23,"wind_cardinal_direction":"ESE","wind_gust_mph":13,"peak_wind_direction_deg":null,"peak_wind_speed_mph":null,"wind_direction_deg":106,"wind_speed_mph":5.99,"label":"5.99 mph (gusts 13), ESE"}},{"type":"Feature","geometry":{"type":"Point","coordinates":[-118.04683,33.82933]},"properties":{"station_name":"KB6CYS Cypress","last_updated":"2025-01-13T07:22:09.356Z","station_id":"AR144","dew_point_temp_f":null,"wet_bulb_temp_f":null,"air_temp_f":48,"relative_humidity_pct":null,"wind_cardinal_direction":"NNW","wind_gust_mph":3,"peak_wind_direction_deg":null,"peak_wind_speed_mph":null,"wind_direction_deg":330,"wind_speed_mph":2,"label":"2 mph (gusts 3), NNW"}},{"type":"Feature","geometry":{"type":"Point","coordinates":[-117.65967,33.45814]},"properties":{"station_name":"CW1521 Capistrano Beach","last_updated":"2025-01-13T07:22:09.356Z","station_id":"C1521","dew_point_temp_f":21.43,"wet_bulb_temp_f":null,"air_temp_f":54,"relative_humidity_pct":28,"wind_cardinal_direction":"NNE","wind_gust_mph":5.99,"peak_wind_direction_deg":null,"peak_wind_speed_mph":null,"wind_direction_deg":21,"wind_speed_mph":2,"label":"2 mph (gusts 5.99), NNE"}},{"type":"Feature","geometry":{"type":"Point","coordinates":[-120.8652,40.36127]},"properties":{"station_name":"Fredonyer Smt","last_updated":"2025-01-13T07:22:09.356Z","station_id":"CTFYP","dew_point_temp_f":17.44,"wet_bulb_temp_f":null,"air_temp_f":24.98,"relative_humidity_pct":73,"wind_cardinal_direction":"ENE","wind_gust_mph":18.34,"peak_wind_direction_deg":null,"peak_wind_speed_mph":null,"wind_direction_deg":73,"wind_speed_mph":12.08,"label":"12.08 mph (gusts 18.34), ENE"}},{"type":"Feature","geometry":{"type":"Point","coordinates":[-120.83679,40.36964]},"properties":{"station_name":"FredonyerEast","last_updated":"2025-01-13T07:22:09.356Z","station_id":"CTFPE","dew_point_temp_f":18.03,"wet_bulb_temp_f":null,"air_temp_f":27.68,"relative_humidity_pct":67,"wind_cardinal_direction":"S","wind_gust_mph":5.14,"peak_wind_direction_deg":null,"peak_wind_speed_mph":null,"wind_direction_deg":182,"wind_speed_mph":1.35,"label":"1.35 mph (gusts 5.14), S"}},{"type":"Feature","geometry":{"type":"Point","coordinates":[-117.0262,34.0158]},"properties":{"station_name":"CW1772 Yucaipa","last_updated":"2025-01-13T07:22:09.356Z","station_id":"C1772","dew_point_temp_f":12.58,"wet_bulb_temp_f":null,"air_temp_f":42,"relative_humidity_pct":30,"wind_cardinal_direction":"S","wind_gust_mph":2,"peak_wind_direction_deg":null,"peak_wind_speed_mph":null,"wind_direction_deg":186,"wind_speed_mph":1,"label":"1 mph (gusts 2), S"}},{"type":"Feature","geometry":{"type":"Point","coordinates":[-122.02295,37.27471]},"properties":{"station_name":"CW1792 Saratoga","last_updated":"2025-01-13T07:22:09.356Z","station_id":"C1792","dew_point_temp_f":31.71,"wet_bulb_temp_f":null,"air_temp_f":42,"relative_humidity_pct":67,"wind_cardinal_direction":"SW","wind_gust_mph":3,"peak_wind_direction_deg":null,"peak_wind_speed_mph":null,"wind_direction_deg":216,"wind_speed_mph":2,"label":"2 mph (gusts 3), SW"}},{"type":"Feature","geometry":{"type":"Point","coordinates":[-116.31766,34.09755]},"properties":{"station_name":"CW1828 Joshua Tree","last_updated":"2025-01-13T07:22:09.356Z","station_id":"C1828","dew_point_temp_f":10.06,"wet_bulb_temp_f":null,"air_temp_f":40,"relative_humidity_pct":29,"wind_cardinal_direction":"NW","wind_gust_mph":12,"peak_wind_direction_deg":null,"peak_wind_speed_mph":null,"wind_direction_deg":309,"wind_speed_mph":5.99,"label":"5.99 mph (gusts 12), NW"}},{"type":"Feature","geometry":{"type":"Point","coordinates":[-121.88749,37.23637]},"properties":{"station_name":"CW0234 San Jose","last_updated":"2025-01-13T07:22:09.356Z","station_id":"C0234","dew_point_temp_f":28.56,"wet_bulb_temp_f":null,"air_temp_f":42,"relative_humidity_pct":59,"wind_cardinal_direction":"S","wind_gust_mph":1,"peak_wind_direction_deg":null,"peak_wind_speed_mph":null,"wind_direction_deg":169,"wind_speed_mph":1,"label":"1 mph (gusts 1), S"}},{"type":"Feature","geometry":{"type":"Point","coordinates":[-118.48117,34.42833]},"properties":{"station_name":"CW1909 Santa Clarita","last_updated":"2025-01-13T07:22:09.356Z","station_id":"C1909","dew_point_temp_f":14.13,"wet_bulb_temp_f":null,"air_temp_f":52,"relative_humidity_pct":22,"wind_cardinal_direction":"N","wind_gust_mph":10,"peak_wind_direction_deg":null,"peak_wind_speed_mph":null,"wind_direction_deg":352,"wind_speed_mph":2,"label":"2 mph (gusts 10), N"}},{"type":"Feature","geometry":{"type":"Point","coordinates":[-116.86273,33.35207]},"properties":{"station_name":"PALOMAR","last_updated":"2025-01-13T07:22:09.356Z","station_id":"PAMC1","dew_point_temp_f":3.47,"wet_bulb_temp_f":null,"air_temp_f":30,"relative_humidity_pct":32,"wind_cardinal_direction":"ESE","wind_gust_mph":9,"peak_wind_direction_deg":106,"peak_wind_speed_mph":9,"wind_direction_deg":103,"wind_speed_mph":5,"label":"5 mph (gusts 9), ESE"}},{"type":"Feature","geometry":{"type":"Point","coordinates":[-117.46361,33.81694]},"properties":{"station_name":"LAKE MATHEWS","last_updated":"2025-01-13T07:22:09.356Z","station_id":"MHEC1","dew_point_temp_f":9.72,"wet_bulb_temp_f":null,"air_temp_f":48,"relative_humidity_pct":21,"wind_cardinal_direction":"SSE","wind_gust_mph":13,"peak_wind_direction_deg":68,"peak_wind_speed_mph":13,"wind_direction_deg":167,"wind_speed_mph":5.99,"label":"5.99 mph (gusts 13), SSE"}},{"type":"Feature","geometry":{"type":"Point","coordinates":[-118.41456,33.40421]},"properties":{"station_name":"Avalon Catalina Airport","last_updated":"2025-01-13T07:22:09.356Z","station_id":"KAVX","dew_point_temp_f":15.57,"wet_bulb_temp_f":null,"air_temp_f":51.8,"relative_humidity_pct":23.61,"wind_cardinal_direction":"E","wind_gust_mph":null,"peak_wind_direction_deg":null,"peak_wind_speed_mph":null,"wind_direction_deg":100,"wind_speed_mph":10.36,"label":"10.36 mph, E"}},{"type":"Feature","geometry":{"type":"Point","coordinates":[-117.66668,33.45858]},"properties":{"station_name":"CW2978 Capistrano Beach","last_updated":"2025-01-13T07:22:09.356Z","station_id":"C2978","dew_point_temp_f":21.42,"wet_bulb_temp_f":null,"air_temp_f":56,"relative_humidity_pct":26,"wind_cardinal_direction":"N","wind_gust_mph":10,"peak_wind_direction_deg":null,"peak_wind_speed_mph":null,"wind_direction_deg":0,"wind_speed_mph":4,"label":"4 mph (gusts 10), N"}},{"type":"Feature","geometry":{"type":"Point","coordinates":[-116.40667,34.19]},"properties":{"station_name":"CW2900 Yucca Valley","last_updated":"2025-01-13T07:22:09.356Z","station_id":"C2900","dew_point_temp_f":11.41,"wet_bulb_temp_f":null,"air_temp_f":39,"relative_humidity_pct":32,"wind_cardinal_direction":"N","wind_gust_mph":12,"peak_wind_direction_deg":null,"peak_wind_speed_mph":null,"wind_direction_deg":351,"wind_speed_mph":5,"label":"5 mph (gusts 12), N"}},{"type":"Feature","geometry":{"type":"Point","coordinates":[-122.06967,37.59633]},"properties":{"station_name":"CW3109 Union City","last_updated":"2025-01-13T07:22:09.356Z","station_id":"C3109","dew_point_temp_f":34.59,"wet_bulb_temp_f":null,"air_temp_f":45,"relative_humidity_pct":67,"wind_cardinal_direction":"S","wind_gust_mph":2,"peak_wind_direction_deg":null,"peak_wind_speed_mph":null,"wind_direction_deg":175,"wind_speed_mph":1,"label":"1 mph (gusts 2), S"}},{"type":"Feature","geometry":{"type":"Point","coordinates":[-120.45555,39.31583]},"properties":{"station_name":"Donner Trail Elementary","last_updated":"2025-01-13T07:22:09.356Z","station_id":"DDONN","dew_point_temp_f":15.75,"wet_bulb_temp_f":null,"air_temp_f":28.4,"relative_humidity_pct":59,"wind_cardinal_direction":"E","wind_gust_mph":13.81,"peak_wind_direction_deg":null,"peak_wind_speed_mph":null,"wind_direction_deg":85,"wind_speed_mph":1,"label":"1 mph (gusts 13.81), E"}},{"type":"Feature","geometry":{"type":"Point","coordinates":[-116.39636,33.82401]},"properties":{"station_name":"CW2285 Thousand Palms","last_updated":"2025-01-13T07:22:09.356Z","station_id":"C2285","dew_point_temp_f":14.31,"wet_bulb_temp_f":null,"air_temp_f":51,"relative_humidity_pct":23,"wind_cardinal_direction":"W","wind_gust_mph":3,"peak_wind_direction_deg":null,"peak_wind_speed_mph":null,"wind_direction_deg":275,"wind_speed_mph":2,"label":"2 mph (gusts 3), W"}},{"type":"Feature","geometry":{"type":"Point","coordinates":[-117.782,33.909]},"properties":{"station_name":"CW3917 Yorba Linda","last_updated":"2025-01-13T07:22:09.356Z","station_id":"C3917","dew_point_temp_f":10.83,"wet_bulb_temp_f":null,"air_temp_f":55,"relative_humidity_pct":17,"wind_cardinal_direction":"NE","wind_gust_mph":11,"peak_wind_direction_deg":null,"peak_wind_speed_mph":null,"wind_direction_deg":45,"wind_speed_mph":5,"label":"5 mph (gusts 11), NE"}},{"type":"Feature","geometry":{"type":"Point","coordinates":[-122.42692,40.94086]},"properties":{"station_name":"Vollmers","last_updated":"2025-01-13T07:22:09.356Z","station_id":"CTVOL","dew_point_temp_f":28.35,"wet_bulb_temp_f":null,"air_temp_f":44.6,"relative_humidity_pct":53,"wind_cardinal_direction":"W","wind_gust_mph":10.52,"peak_wind_direction_deg":null,"peak_wind_speed_mph":null,"wind_direction_deg":262,"wind_speed_mph":7.38,"label":"7.38 mph (gusts 10.52), W"}},{"type":"Feature","geometry":{"type":"Point","coordinates":[-121.36029,38.41935]},"properties":{"station_name":"KJ6MC Elk Grove","last_updated":"2025-01-13T07:22:09.356Z","station_id":"AR866","dew_point_temp_f":38.8,"wet_bulb_temp_f":null,"air_temp_f":44,"relative_humidity_pct":82,"wind_cardinal_direction":"ESE","wind_gust_mph":3,"peak_wind_direction_deg":null,"peak_wind_speed_mph":null,"wind_direction_deg":104,"wind_speed_mph":1,"label":"1 mph (gusts 3), ESE"}},{"type":"Feature","geometry":{"type":"Point","coordinates":[-122.03465,37.08829]},"properties":{"station_name":"CW5272 Scotts Valley","last_updated":"2025-01-13T07:22:09.356Z","station_id":"C5272","dew_point_temp_f":33.35,"wet_bulb_temp_f":null,"air_temp_f":48,"relative_humidity_pct":57,"wind_cardinal_direction":"W","wind_gust_mph":5.99,"peak_wind_direction_deg":null,"peak_wind_speed_mph":null,"wind_direction_deg":264,"wind_speed_mph":2,"label":"2 mph (gusts 5.99), W"}},{"type":"Feature","geometry":{"type":"Point","coordinates":[-124.12833,40.56661]},"properties":{"station_name":"CW5061 Fortuna","last_updated":"2025-01-13T07:22:09.356Z","station_id":"C5061","dew_point_temp_f":37.45,"wet_bulb_temp_f":null,"air_temp_f":42,"relative_humidity_pct":84,"wind_cardinal_direction":"SW","wind_gust_mph":3,"peak_wind_direction_deg":null,"peak_wind_speed_mph":null,"wind_direction_deg":231,"wind_speed_mph":2,"label":"2 mph (gusts 3), SW"}},{"type":"Feature","geometry":{"type":"Point","coordinates":[-118.36685,33.75964]},"properties":{"station_name":"WA6MEM Palos Verdes","last_updated":"2025-01-13T07:22:09.356Z","station_id":"AS176","dew_point_temp_f":26.71,"wet_bulb_temp_f":null,"air_temp_f":51,"relative_humidity_pct":39,"wind_cardinal_direction":"NNE","wind_gust_mph":null,"peak_wind_direction_deg":null,"peak_wind_speed_mph":null,"wind_direction_deg":19,"wind_speed_mph":5.99,"label":"5.99 mph, NNE"}},{"type":"Feature","geometry":{"type":"Point","coordinates":[-118.24167,34.06778]},"properties":{"station_name":"LOS ANGELES DOWNTOWN","last_updated":"2025-01-13T07:22:09.356Z","station_id":"FHMC1","dew_point_temp_f":23.47,"wet_bulb_temp_f":null,"air_temp_f":46.31,"relative_humidity_pct":40.63,"wind_cardinal_direction":"NNW","wind_gust_mph":4.95,"peak_wind_direction_deg":null,"peak_wind_speed_mph":null,"wind_direction_deg":340.8,"wind_speed_mph":4.36,"label":"4.36 mph (gusts 4.95), NNW"}},{"type":"Feature","geometry":{"type":"Point","coordinates":[-119.2108,34.2673]},"properties":{"station_name":"Ventura County Government Center","last_updated":"2025-01-13T07:22:09.356Z","station_id":"VTUC1","dew_point_temp_f":17.94,"wet_bulb_temp_f":41.52,"air_temp_f":56.5,"relative_humidity_pct":22,"wind_cardinal_direction":"ENE","wind_gust_mph":13.69,"peak_wind_direction_deg":null,"peak_wind_speed_mph":null,"wind_direction_deg":59,"wind_speed_mph":7.1,"label":"7.1 mph (gusts 13.69), ENE"}},{"type":"Feature","geometry":{"type":"Point","coordinates":[-119.86272,37.44229]},"properties":{"station_name":"NM6G Mariposa","last_updated":"2025-01-13T07:22:09.356Z","station_id":"AS223","dew_point_temp_f":4.21,"wet_bulb_temp_f":null,"air_temp_f":36,"relative_humidity_pct":26,"wind_cardinal_direction":"NNE","wind_gust_mph":null,"peak_wind_direction_deg":null,"peak_wind_speed_mph":null,"wind_direction_deg":14,"wind_speed_mph":3,"label":"3 mph, NNE"}},{"type":"Feature","geometry":{"type":"Point","coordinates":[-122.43167,37.75967]},"properties":{"station_name":"CW5988 San Francisco","last_updated":"2025-01-13T07:22:09.356Z","station_id":"C5988","dew_point_temp_f":47.23,"wet_bulb_temp_f":null,"air_temp_f":51,"relative_humidity_pct":87,"wind_cardinal_direction":"SSE","wind_gust_mph":3,"peak_wind_direction_deg":null,"peak_wind_speed_mph":null,"wind_direction_deg":155,"wind_speed_mph":2,"label":"2 mph (gusts 3), SSE"}},{"type":"Feature","geometry":{"type":"Point","coordinates":[-119.5195,37.23545]},"properties":{"station_name":"CW6459 NORTH FORK","last_updated":"2025-01-13T07:22:09.356Z","station_id":"C6459","dew_point_temp_f":28.36,"wet_bulb_temp_f":null,"air_temp_f":37,"relative_humidity_pct":71,"wind_cardinal_direction":"WNW","wind_gust_mph":null,"peak_wind_direction_deg":null,"peak_wind_speed_mph":null,"wind_direction_deg":292,"wind_speed_mph":3,"label":"3 mph, WNW"}},{"type":"Feature","geometry":{"type":"Point","coordinates":[-122.16583,37.369]},"properties":{"station_name":"CW6623 Los Altos Hills","last_updated":"2025-01-13T07:22:09.356Z","station_id":"C6623","dew_point_temp_f":25.81,"wet_bulb_temp_f":null,"air_temp_f":50,"relative_humidity_pct":39,"wind_cardinal_direction":"S","wind_gust_mph":3,"peak_wind_direction_deg":null,"peak_wind_speed_mph":null,"wind_direction_deg":184,"wind_speed_mph":2,"label":"2 mph (gusts 3), S"}},{"type":"Feature","geometry":{"type":"Point","coordinates":[-118.49407,35.16809]},"properties":{"station_name":"CW6906 Tehachapi","last_updated":"2025-01-13T07:22:09.356Z","station_id":"C6906","dew_point_temp_f":12.29,"wet_bulb_temp_f":null,"air_temp_f":37,"relative_humidity_pct":36,"wind_cardinal_direction":"SW","wind_gust_mph":25,"peak_wind_direction_deg":null,"peak_wind_speed_mph":null,"wind_direction_deg":226,"wind_speed_mph":17,"label":"17 mph (gusts 25), SW"}},{"type":"Feature","geometry":{"type":"Point","coordinates":[-122.12967,38.17167]},"properties":{"station_name":"CW6944 Fairfield","last_updated":"2025-01-13T07:22:09.356Z","station_id":"C6944","dew_point_temp_f":29.16,"wet_bulb_temp_f":null,"air_temp_f":44,"relative_humidity_pct":56,"wind_cardinal_direction":"SW","wind_gust_mph":2,"peak_wind_direction_deg":null,"peak_wind_speed_mph":null,"wind_direction_deg":232,"wind_speed_mph":1,"label":"1 mph (gusts 2), SW"}},{"type":"Feature","geometry":{"type":"Point","coordinates":[-120.65278,39.56778]},"properties":{"station_name":"SIERRA CITY 1W SRC","last_updated":"2025-01-13T07:22:09.356Z","station_id":"SEYC1","dew_point_temp_f":17.58,"wet_bulb_temp_f":null,"air_temp_f":32.1,"relative_humidity_pct":55,"wind_cardinal_direction":"NNE","wind_gust_mph":null,"peak_wind_direction_deg":null,"peak_wind_speed_mph":null,"wind_direction_deg":13,"wind_speed_mph":3.54,"label":"3.54 mph, NNE"}},{"type":"Feature","geometry":{"type":"Point","coordinates":[-118.68472,35.23667]},"properties":{"station_name":"KRN03 QD","last_updated":"2025-01-13T07:22:09.356Z","station_id":"KRTC1","dew_point_temp_f":8.42,"wet_bulb_temp_f":null,"air_temp_f":39,"relative_humidity_pct":28,"wind_cardinal_direction":"ENE","wind_gust_mph":14.01,"peak_wind_direction_deg":2,"peak_wind_speed_mph":14.01,"wind_direction_deg":69,"wind_speed_mph":5.99,"label":"5.99 mph (gusts 14.01), ENE"}},{"type":"Feature","geometry":{"type":"Point","coordinates":[-122.58937,41.79255]},"properties":{"station_name":"Anderson Grade","last_updated":"2025-01-13T07:22:09.356Z","station_id":"CTAND","dew_point_temp_f":25.2,"wet_bulb_temp_f":null,"air_temp_f":32,"relative_humidity_pct":76,"wind_cardinal_direction":"N","wind_gust_mph":5.14,"peak_wind_direction_deg":null,"peak_wind_speed_mph":null,"wind_direction_deg":3,"wind_speed_mph":3.13,"label":"3.13 mph (gusts 5.14), N"}},{"type":"Feature","geometry":{"type":"Point","coordinates":[-121.0887,40.58548]},"properties":{"station_name":"Bogard","last_updated":"2025-01-13T07:22:09.356Z","station_id":"CTBOG","dew_point_temp_f":48.18,"wet_bulb_temp_f":null,"air_temp_f":51.98,"relative_humidity_pct":87,"wind_cardinal_direction":"SSW","wind_gust_mph":5.37,"peak_wind_direction_deg":null,"peak_wind_speed_mph":null,"wind_direction_deg":211,"wind_speed_mph":3.36,"label":"3.36 mph (gusts 5.37), SSW"}},{"type":"Feature","geometry":{"type":"Point","coordinates":[-119.08186,34.3519]},"properties":{"station_name":"CW7664 Santa Paula","last_updated":"2025-01-13T07:22:09.356Z","station_id":"C7664","dew_point_temp_f":15.82,"wet_bulb_temp_f":null,"air_temp_f":54,"relative_humidity_pct":22,"wind_cardinal_direction":"NE","wind_gust_mph":8,"peak_wind_direction_deg":null,"peak_wind_speed_mph":null,"wind_direction_deg":45,"wind_speed_mph":3,"label":"3 mph (gusts 8), NE"}},{"type":"Feature","geometry":{"type":"Point","coordinates":[-120.79391,38.3768]},"properties":{"station_name":"Westover Field - Amador County Airport","last_updated":"2025-01-13T07:22:09.356Z","station_id":"KJAQ","dew_point_temp_f":39.54,"wet_bulb_temp_f":null,"air_temp_f":40.64,"relative_humidity_pct":95.89,"wind_cardinal_direction":"ESE","wind_gust_mph":null,"peak_wind_direction_deg":null,"peak_wind_speed_mph":null,"wind_direction_deg":120,"wind_speed_mph":3.45,"label":"3.45 mph, ESE"}},{"type":"Feature","geometry":{"type":"Point","coordinates":[-117.7025,33.4845]},"properties":{"station_name":"CW7857 Dana Point","last_updated":"2025-01-13T07:22:09.356Z","station_id":"C7857","dew_point_temp_f":21.43,"wet_bulb_temp_f":null,"air_temp_f":55,"relative_humidity_pct":27,"wind_cardinal_direction":"ENE","wind_gust_mph":9,"peak_wind_direction_deg":null,"peak_wind_speed_mph":null,"wind_direction_deg":67,"wind_speed_mph":3,"label":"3 mph (gusts 9), ENE"}},{"type":"Feature","geometry":{"type":"Point","coordinates":[-117.01615,32.76697]},"properties":{"station_name":"CW7369 La Mesa","last_updated":"2025-01-13T07:22:09.356Z","station_id":"C7369","dew_point_temp_f":23.65,"wet_bulb_temp_f":null,"air_temp_f":45,"relative_humidity_pct":43,"wind_cardinal_direction":"NE","wind_gust_mph":3,"peak_wind_direction_deg":null,"peak_wind_speed_mph":null,"wind_direction_deg":49,"wind_speed_mph":1,"label":"1 mph (gusts 3), NE"}},{"type":"Feature","geometry":{"type":"Point","coordinates":[-117.6024,33.8977]},"properties":{"station_name":"Corona Airport","last_updated":"2025-01-13T07:22:09.356Z","station_id":"KAJO","dew_point_temp_f":12,"wet_bulb_temp_f":null,"air_temp_f":53.6,"relative_humidity_pct":18.86,"wind_cardinal_direction":"SSE","wind_gust_mph":null,"peak_wind_direction_deg":null,"peak_wind_speed_mph":null,"wind_direction_deg":150,"wind_speed_mph":9.21,"label":"9.21 mph, SSE"}},{"type":"Feature","geometry":{"type":"Point","coordinates":[-116.856,34.2638]},"properties":{"station_name":"Big Bear City Airport","last_updated":"2025-01-13T07:22:09.356Z","station_id":"KL35","dew_point_temp_f":6.64,"wet_bulb_temp_f":null,"air_temp_f":17.6,"relative_humidity_pct":61.92,"wind_cardinal_direction":"N","wind_gust_mph":null,"peak_wind_direction_deg":null,"peak_wind_speed_mph":null,"wind_direction_deg":0,"wind_speed_mph":0,"label":"0 mph, N"}},{"type":"Feature","geometry":{"type":"Point","coordinates":[-122.025,36.971]},"properties":{"station_name":"CW8539 Santa Cruz","last_updated":"2025-01-13T07:22:09.356Z","station_id":"C8539","dew_point_temp_f":33.6,"wet_bulb_temp_f":null,"air_temp_f":41,"relative_humidity_pct":75,"wind_cardinal_direction":"NW","wind_gust_mph":3,"peak_wind_direction_deg":null,"peak_wind_speed_mph":null,"wind_direction_deg":306,"wind_speed_mph":1,"label":"1 mph (gusts 3), NW"}},{"type":"Feature","geometry":{"type":"Point","coordinates":[-121.76202,40.85216]},"properties":{"station_name":"Hatchet Mtn","last_updated":"2025-01-13T07:22:09.356Z","station_id":"CTHAT","dew_point_temp_f":20.26,"wet_bulb_temp_f":null,"air_temp_f":30.02,"relative_humidity_pct":67,"wind_cardinal_direction":"E","wind_gust_mph":12.53,"peak_wind_direction_deg":null,"peak_wind_speed_mph":null,"wind_direction_deg":94,"wind_speed_mph":10.29,"label":"10.29 mph (gusts 12.53), E"}},{"type":"Feature","geometry":{"type":"Point","coordinates":[-118.20917,34.86867]},"properties":{"station_name":"KK6KU Rosamond","last_updated":"2025-01-13T07:22:09.356Z","station_id":"AS776","dew_point_temp_f":6.01,"wet_bulb_temp_f":null,"air_temp_f":28,"relative_humidity_pct":39,"wind_cardinal_direction":"NNW","wind_gust_mph":null,"peak_wind_direction_deg":null,"peak_wind_speed_mph":null,"wind_direction_deg":341,"wind_speed_mph":5.99,"label":"5.99 mph, NNW"}},{"type":"Feature","geometry":{"type":"Point","coordinates":[-117.69348,35.58686]},"properties":{"station_name":"CW9067 Ridgecrest","last_updated":"2025-01-13T07:22:09.356Z","station_id":"C9067","dew_point_temp_f":11.41,"wet_bulb_temp_f":null,"air_temp_f":39,"relative_humidity_pct":32,"wind_cardinal_direction":"S","wind_gust_mph":5.99,"peak_wind_direction_deg":null,"peak_wind_speed_mph":null,"wind_direction_deg":180,"wind_speed_mph":4,"label":"4 mph (gusts 5.99), S"}},{"type":"Feature","geometry":{"type":"Point","coordinates":[-120.54208,38.49219]},"properties":{"station_name":"CW9148 Pioneer","last_updated":"2025-01-13T07:22:09.356Z","station_id":"C9148","dew_point_temp_f":17.98,"wet_bulb_temp_f":null,"air_temp_f":40,"relative_humidity_pct":41,"wind_cardinal_direction":"SE","wind_gust_mph":13,"peak_wind_direction_deg":null,"peak_wind_speed_mph":null,"wind_direction_deg":146,"wind_speed_mph":2,"label":"2 mph (gusts 13), SE"}},{"type":"Feature","geometry":{"type":"Point","coordinates":[-120.56042,35.13844]},"properties":{"station_name":"CW9687 Arroyo Grande","last_updated":"2025-01-13T07:22:09.356Z","station_id":"C9687","dew_point_temp_f":27.23,"wet_bulb_temp_f":null,"air_temp_f":46,"relative_humidity_pct":48,"wind_cardinal_direction":"ESE","wind_gust_mph":10,"peak_wind_direction_deg":null,"peak_wind_speed_mph":null,"wind_direction_deg":109,"wind_speed_mph":4,"label":"4 mph (gusts 10), ESE"}},{"type":"Feature","geometry":{"type":"Point","coordinates":[-119.72469,34.44804]},"properties":{"station_name":"CW9548 Santa Barbara","last_updated":"2025-01-13T07:22:09.356Z","station_id":"C9548","dew_point_temp_f":24.55,"wet_bulb_temp_f":null,"air_temp_f":50,"relative_humidity_pct":37,"wind_cardinal_direction":"ESE","wind_gust_mph":5,"peak_wind_direction_deg":null,"peak_wind_speed_mph":null,"wind_direction_deg":120,"wind_speed_mph":4,"label":"4 mph (gusts 5), ESE"}},{"type":"Feature","geometry":{"type":"Point","coordinates":[-117.8005,35.627]},"properties":{"station_name":"CW9763 Inyokern","last_updated":"2025-01-13T07:22:09.356Z","station_id":"C9763","dew_point_temp_f":7.83,"wet_bulb_temp_f":null,"air_temp_f":32,"relative_humidity_pct":36,"wind_cardinal_direction":"S","wind_gust_mph":7,"peak_wind_direction_deg":null,"peak_wind_speed_mph":null,"wind_direction_deg":174,"wind_speed_mph":5.99,"label":"5.99 mph (gusts 7), S"}},{"type":"Feature","geometry":{"type":"Point","coordinates":[-118.01533,33.90633]},"properties":{"station_name":"CW9736 La Mirada","last_updated":"2025-01-13T07:22:09.356Z","station_id":"C9736","dew_point_temp_f":21.33,"wet_bulb_temp_f":null,"air_temp_f":52,"relative_humidity_pct":30,"wind_cardinal_direction":"ENE","wind_gust_mph":3,"peak_wind_direction_deg":null,"peak_wind_speed_mph":null,"wind_direction_deg":77,"wind_speed_mph":1,"label":"1 mph (gusts 3), ENE"}},{"type":"Feature","geometry":{"type":"Point","coordinates":[-118.59225,34.24316]},"properties":{"station_name":"DW0345 Chatsworth","last_updated":"2025-01-13T07:22:09.356Z","station_id":"D0345","dew_point_temp_f":15.82,"wet_bulb_temp_f":null,"air_temp_f":54,"relative_humidity_pct":22,"wind_cardinal_direction":"NNW","wind_gust_mph":4,"peak_wind_direction_deg":null,"peak_wind_speed_mph":null,"wind_direction_deg":332,"wind_speed_mph":2,"label":"2 mph (gusts 4), NNW"}},{"type":"Feature","geometry":{"type":"Point","coordinates":[-117.72333,33.87617]},"properties":{"station_name":"DW0490 Yorba Linda","last_updated":"2025-01-13T07:22:09.356Z","station_id":"D0490","dew_point_temp_f":19.53,"wet_bulb_temp_f":null,"air_temp_f":56,"relative_humidity_pct":24,"wind_cardinal_direction":"E","wind_gust_mph":13,"peak_wind_direction_deg":null,"peak_wind_speed_mph":null,"wind_direction_deg":85,"wind_speed_mph":4,"label":"4 mph (gusts 13), E"}},{"type":"Feature","geometry":{"type":"Point","coordinates":[-119.18722,34.53944]},"properties":{"station_name":"Rose Valley","last_updated":"2025-01-13T07:22:09.356Z","station_id":"RSVC1","dew_point_temp_f":9.9,"wet_bulb_temp_f":21.45,"air_temp_f":26.2,"relative_humidity_pct":50,"wind_cardinal_direction":"NNW","wind_gust_mph":4.3,"peak_wind_direction_deg":null,"peak_wind_speed_mph":null,"wind_direction_deg":331,"wind_speed_mph":2.2,"label":"2.2 mph (gusts 4.3), NNW"}},{"type":"Feature","geometry":{"type":"Point","coordinates":[-119.09333,34.28278]},"properties":{"station_name":"South Mountain West","last_updated":"2025-01-13T07:22:09.356Z","station_id":"SMNC1","dew_point_temp_f":17.67,"wet_bulb_temp_f":42.57,"air_temp_f":58.8,"relative_humidity_pct":20,"wind_cardinal_direction":"NNE","wind_gust_mph":11.9,"peak_wind_direction_deg":null,"peak_wind_speed_mph":null,"wind_direction_deg":16,"wind_speed_mph":5.5,"label":"5.5 mph (gusts 11.9), NNE"}},{"type":"Feature","geometry":{"type":"Point","coordinates":[-119.42361,34.41722]},"properties":{"station_name":"La Granada Mountain","last_updated":"2025-01-13T07:22:09.356Z","station_id":"LGRC1","dew_point_temp_f":13.12,"wet_bulb_temp_f":null,"air_temp_f":47.4,"relative_humidity_pct":25,"wind_cardinal_direction":"NE","wind_gust_mph":5.9,"peak_wind_direction_deg":null,"peak_wind_speed_mph":null,"wind_direction_deg":48,"wind_speed_mph":4,"label":"4 mph (gusts 5.9), NE"}},{"type":"Feature","geometry":{"type":"Point","coordinates":[-118.87967,34.28583]},"properties":{"station_name":"DW0915 Moorpark-Downtown","last_updated":"2025-01-13T07:22:09.356Z","station_id":"D0915","dew_point_temp_f":17.83,"wet_bulb_temp_f":null,"air_temp_f":54,"relative_humidity_pct":24,"wind_cardinal_direction":"E","wind_gust_mph":9,"peak_wind_direction_deg":null,"peak_wind_speed_mph":null,"wind_direction_deg":90,"wind_speed_mph":2,"label":"2 mph (gusts 9), E"}},{"type":"Feature","geometry":{"type":"Point","coordinates":[-121.55655,37.78388]},"properties":{"station_name":"DW0946 Mountain House","last_updated":"2025-01-13T07:22:09.356Z","station_id":"D0946","dew_point_temp_f":28.04,"wet_bulb_temp_f":null,"air_temp_f":33,"relative_humidity_pct":82,"wind_cardinal_direction":"SSW","wind_gust_mph":4,"peak_wind_direction_deg":null,"peak_wind_speed_mph":null,"wind_direction_deg":211,"wind_speed_mph":2,"label":"2 mph (gusts 4), SSW"}},{"type":"Feature","geometry":{"type":"Point","coordinates":[-121.2135,36.36583]},"properties":{"station_name":"DW1115 Greenfield","last_updated":"2025-01-13T07:22:09.356Z","station_id":"D1115","dew_point_temp_f":23.83,"wet_bulb_temp_f":null,"air_temp_f":44,"relative_humidity_pct":45,"wind_cardinal_direction":"E","wind_gust_mph":10,"peak_wind_direction_deg":null,"peak_wind_speed_mph":null,"wind_direction_deg":85,"wind_speed_mph":8,"label":"8 mph (gusts 10), E"}},{"type":"Feature","geometry":{"type":"Point","coordinates":[-120.73367,37.82567]},"properties":{"station_name":"DW1155 Knights Ferry","last_updated":"2025-01-13T07:22:09.356Z","station_id":"D1155","dew_point_temp_f":38.8,"wet_bulb_temp_f":null,"air_temp_f":44,"relative_humidity_pct":82,"wind_cardinal_direction":"E","wind_gust_mph":9,"peak_wind_direction_deg":null,"peak_wind_speed_mph":null,"wind_direction_deg":88,"wind_speed_mph":5,"label":"5 mph (gusts 9), E"}},{"type":"Feature","geometry":{"type":"Point","coordinates":[-120.86926,39.00533]},"properties":{"station_name":"N6ZQK FORESTHILL","last_updated":"2025-01-13T07:22:09.356Z","station_id":"AT046","dew_point_temp_f":23.54,"wet_bulb_temp_f":null,"air_temp_f":42,"relative_humidity_pct":48,"wind_cardinal_direction":"NE","wind_gust_mph":12,"peak_wind_direction_deg":null,"peak_wind_speed_mph":null,"wind_direction_deg":54,"wind_speed_mph":3,"label":"3 mph (gusts 12), NE"}},{"type":"Feature","geometry":{"type":"Point","coordinates":[-118.90333,34.90167]},"properties":{"station_name":"GRAPEVINE PEAK","last_updated":"2025-01-13T07:22:09.356Z","station_id":"GVPC1","dew_point_temp_f":34,"wet_bulb_temp_f":null,"air_temp_f":34,"relative_humidity_pct":100,"wind_cardinal_direction":"SSE","wind_gust_mph":33,"peak_wind_direction_deg":174,"peak_wind_speed_mph":33,"wind_direction_deg":163,"wind_speed_mph":23,"label":"23 mph (gusts 33), SSE"}},{"type":"Feature","geometry":{"type":"Point","coordinates":[-118.60028,35.25111]},"properties":{"station_name":"HART FLAT","last_updated":"2025-01-13T07:22:09.356Z","station_id":"HFLC1","dew_point_temp_f":10.15,"wet_bulb_temp_f":null,"air_temp_f":45,"relative_humidity_pct":24,"wind_cardinal_direction":"ESE","wind_gust_mph":25,"peak_wind_direction_deg":125,"peak_wind_speed_mph":25,"wind_direction_deg":123,"wind_speed_mph":16,"label":"16 mph (gusts 25), ESE"}},{"type":"Feature","geometry":{"type":"Point","coordinates":[-117.65883,34.2365]},"properties":{"station_name":"DW1871 Mt Baldy","last_updated":"2025-01-13T07:22:09.356Z","station_id":"D1871","dew_point_temp_f":4.84,"wet_bulb_temp_f":null,"air_temp_f":41,"relative_humidity_pct":22,"wind_cardinal_direction":"N","wind_gust_mph":null,"peak_wind_direction_deg":null,"peak_wind_speed_mph":null,"wind_direction_deg":0,"wind_speed_mph":7,"label":"7 mph, N"}},{"type":"Feature","geometry":{"type":"Point","coordinates":[-123.06867,38.38217]},"properties":{"station_name":"DW1970 Bodega Bay","last_updated":"2025-01-13T07:22:09.356Z","station_id":"D1970","dew_point_temp_f":39.16,"wet_bulb_temp_f":null,"air_temp_f":49,"relative_humidity_pct":69,"wind_cardinal_direction":"S","wind_gust_mph":5.99,"peak_wind_direction_deg":null,"peak_wind_speed_mph":null,"wind_direction_deg":177,"wind_speed_mph":1,"label":"1 mph (gusts 5.99), S"}},{"type":"Feature","geometry":{"type":"Point","coordinates":[-120.59667,40.37783]},"properties":{"station_name":"DW2000 Susanville","last_updated":"2025-01-13T07:22:09.356Z","station_id":"D2000","dew_point_temp_f":23.27,"wet_bulb_temp_f":null,"air_temp_f":30,"relative_humidity_pct":76,"wind_cardinal_direction":"SSE","wind_gust_mph":4,"peak_wind_direction_deg":null,"peak_wind_speed_mph":null,"wind_direction_deg":155,"wind_speed_mph":2,"label":"2 mph (gusts 4), SSE"}},{"type":"Feature","geometry":{"type":"Point","coordinates":[-116.6115,33.01733]},"properties":{"station_name":"CW7802 Julian","last_updated":"2025-01-13T07:22:09.356Z","station_id":"C7802","dew_point_temp_f":1.56,"wet_bulb_temp_f":null,"air_temp_f":36,"relative_humidity_pct":23,"wind_cardinal_direction":"N","wind_gust_mph":3,"peak_wind_direction_deg":null,"peak_wind_speed_mph":null,"wind_direction_deg":0,"wind_speed_mph":1,"label":"1 mph (gusts 3), N"}},{"type":"Feature","geometry":{"type":"Point","coordinates":[-118.62692,34.07509]},"properties":{"station_name":"DW2363 Malibu","last_updated":"2025-01-13T07:22:09.356Z","station_id":"D2363","dew_point_temp_f":13.44,"wet_bulb_temp_f":null,"air_temp_f":50,"relative_humidity_pct":23,"wind_cardinal_direction":"NNW","wind_gust_mph":14.99,"peak_wind_direction_deg":null,"peak_wind_speed_mph":null,"wind_direction_deg":338,"wind_speed_mph":12,"label":"12 mph (gusts 14.99), NNW"}},{"type":"Feature","geometry":{"type":"Point","coordinates":[-117.69636,33.95322]},"properties":{"station_name":"DW2585 Chino Hills","last_updated":"2025-01-13T07:22:09.356Z","station_id":"D2585","dew_point_temp_f":20.55,"wet_bulb_temp_f":null,"air_temp_f":55,"relative_humidity_pct":26,"wind_cardinal_direction":"S","wind_gust_mph":10,"peak_wind_direction_deg":null,"peak_wind_speed_mph":null,"wind_direction_deg":181,"wind_speed_mph":3,"label":"3 mph (gusts 10), S"}},{"type":"Feature","geometry":{"type":"Point","coordinates":[-123.45133,38.71017]},"properties":{"station_name":"DW2695 The Sea Ranch","last_updated":"2025-01-13T07:22:09.356Z","station_id":"D2695","dew_point_temp_f":40.03,"wet_bulb_temp_f":null,"air_temp_f":44,"relative_humidity_pct":86,"wind_cardinal_direction":"NNW","wind_gust_mph":5.99,"peak_wind_direction_deg":null,"peak_wind_speed_mph":null,"wind_direction_deg":329,"wind_speed_mph":3,"label":"3 mph (gusts 5.99), NNW"}},{"type":"Feature","geometry":{"type":"Point","coordinates":[-121.60933,37.69303]},"properties":{"station_name":"ALTAMONT","last_updated":"2025-01-13T07:22:09.356Z","station_id":"AATC1","dew_point_temp_f":23.65,"wet_bulb_temp_f":null,"air_temp_f":49,"relative_humidity_pct":37,"wind_cardinal_direction":"NNE","wind_gust_mph":8,"peak_wind_direction_deg":325,"peak_wind_speed_mph":8,"wind_direction_deg":14,"wind_speed_mph":3,"label":"3 mph (gusts 8), NNE"}},{"type":"Feature","geometry":{"type":"Point","coordinates":[-117.25306,32.92109]},"properties":{"station_name":"DW3101 Torrey Pines Reserve","last_updated":"2025-01-13T07:22:09.356Z","station_id":"D3101","dew_point_temp_f":29.1,"wet_bulb_temp_f":null,"air_temp_f":51,"relative_humidity_pct":43,"wind_cardinal_direction":"ESE","wind_gust_mph":7,"peak_wind_direction_deg":null,"peak_wind_speed_mph":null,"wind_direction_deg":109,"wind_speed_mph":3,"label":"3 mph (gusts 7), ESE"}},{"type":"Feature","geometry":{"type":"Point","coordinates":[-119.27606,36.33792]},"properties":{"station_name":"DW3195 East Visalia","last_updated":"2025-01-13T07:22:09.356Z","station_id":"D3195","dew_point_temp_f":34.86,"wet_bulb_temp_f":null,"air_temp_f":37,"relative_humidity_pct":92,"wind_cardinal_direction":"S","wind_gust_mph":1,"peak_wind_direction_deg":null,"peak_wind_speed_mph":null,"wind_direction_deg":188,"wind_speed_mph":1,"label":"1 mph (gusts 1), S"}},{"type":"Feature","geometry":{"type":"Point","coordinates":[-121.4103,36.8933]},"properties":{"station_name":"Hollister, CA","last_updated":"2025-01-13T07:22:09.356Z","station_id":"KCVH","dew_point_temp_f":26.46,"wet_bulb_temp_f":null,"air_temp_f":37.4,"relative_humidity_pct":64.66,"wind_cardinal_direction":"N","wind_gust_mph":null,"peak_wind_direction_deg":null,"peak_wind_speed_mph":null,"wind_direction_deg":0,"wind_speed_mph":0,"label":"0 mph, N"}},{"type":"Feature","geometry":{"type":"Point","coordinates":[-117.15214,33.74776]},"properties":{"station_name":"DW3590 Hemet","last_updated":"2025-01-13T07:22:09.356Z","station_id":"D3590","dew_point_temp_f":13.15,"wet_bulb_temp_f":null,"air_temp_f":41,"relative_humidity_pct":32,"wind_cardinal_direction":"ENE","wind_gust_mph":3,"peak_wind_direction_deg":null,"peak_wind_speed_mph":null,"wind_direction_deg":74,"wind_speed_mph":1,"label":"1 mph (gusts 3), ENE"}},{"type":"Feature","geometry":{"type":"Point","coordinates":[-120.51457,38.30624]},"properties":{"station_name":"WA5KWK Rail Road Flat","last_updated":"2025-01-13T07:22:09.356Z","station_id":"AT317","dew_point_temp_f":31.71,"wet_bulb_temp_f":null,"air_temp_f":42,"relative_humidity_pct":67,"wind_cardinal_direction":"ENE","wind_gust_mph":3,"peak_wind_direction_deg":null,"peak_wind_speed_mph":null,"wind_direction_deg":76,"wind_speed_mph":2,"label":"2 mph (gusts 3), ENE"}},{"type":"Feature","geometry":{"type":"Point","coordinates":[-118.38093,33.81048]},"properties":{"station_name":"DW3801 Redondo Beach","last_updated":"2025-01-13T07:22:09.356Z","station_id":"D3801","dew_point_temp_f":26.96,"wet_bulb_temp_f":null,"air_temp_f":55,"relative_humidity_pct":34,"wind_cardinal_direction":"E","wind_gust_mph":5.99,"peak_wind_direction_deg":null,"peak_wind_speed_mph":null,"wind_direction_deg":89,"wind_speed_mph":3,"label":"3 mph (gusts 5.99), E"}},{"type":"Feature","geometry":{"type":"Point","coordinates":[-120.12222,36.18278]},"properties":{"station_name":"WX6HNX-6 Huron","last_updated":"2025-01-13T07:22:09.356Z","station_id":"AT338","dew_point_temp_f":27.39,"wet_bulb_temp_f":null,"air_temp_f":36,"relative_humidity_pct":71,"wind_cardinal_direction":"SW","wind_gust_mph":8,"peak_wind_direction_deg":null,"peak_wind_speed_mph":null,"wind_direction_deg":223,"wind_speed_mph":7,"label":"7 mph (gusts 8), SW"}},{"type":"Feature","geometry":{"type":"Point","coordinates":[-119.2127,34.28171]},"properties":{"station_name":"KK6HO Ventura","last_updated":"2025-01-13T07:22:09.356Z","station_id":"AT354","dew_point_temp_f":22.21,"wet_bulb_temp_f":null,"air_temp_f":58,"relative_humidity_pct":25,"wind_cardinal_direction":"ENE","wind_gust_mph":8,"peak_wind_direction_deg":null,"peak_wind_speed_mph":null,"wind_direction_deg":64,"wind_speed_mph":5,"label":"5 mph (gusts 8), ENE"}},{"type":"Feature","geometry":{"type":"Point","coordinates":[-122.4996,37.5136]},"properties":{"station_name":"Half Moon Bay Airport","last_updated":"2025-01-13T07:22:09.356Z","station_id":"KHAF","dew_point_temp_f":42.75,"wet_bulb_temp_f":null,"air_temp_f":46.4,"relative_humidity_pct":87.19,"wind_cardinal_direction":"N","wind_gust_mph":null,"peak_wind_direction_deg":null,"peak_wind_speed_mph":null,"wind_direction_deg":0,"wind_speed_mph":0,"label":"0 mph, N"}},{"type":"Feature","geometry":{"type":"Point","coordinates":[-122.89917,38.43333]},"properties":{"station_name":"DW4623 Graton","last_updated":"2025-01-13T07:22:09.356Z","station_id":"D4623","dew_point_temp_f":36.39,"wet_bulb_temp_f":null,"air_temp_f":40,"relative_humidity_pct":87,"wind_cardinal_direction":"W","wind_gust_mph":2,"peak_wind_direction_deg":null,"peak_wind_speed_mph":null,"wind_direction_deg":281,"wind_speed_mph":1,"label":"1 mph (gusts 2), W"}},{"type":"Feature","geometry":{"type":"Point","coordinates":[-120.7533,38.7242]},"properties":{"station_name":"Placerville Airport","last_updated":"2025-01-13T07:22:09.356Z","station_id":"KPVF","dew_point_temp_f":26.4,"wet_bulb_temp_f":null,"air_temp_f":44.6,"relative_humidity_pct":48.93,"wind_cardinal_direction":"N","wind_gust_mph":null,"peak_wind_direction_deg":null,"peak_wind_speed_mph":null,"wind_direction_deg":0,"wind_speed_mph":0,"label":"0 mph, N"}},{"type":"Feature","geometry":{"type":"Point","coordinates":[-121.05231,40.2942]},"properties":{"station_name":"K6TTR Westwood","last_updated":"2025-01-13T07:22:09.356Z","station_id":"AT488","dew_point_temp_f":20.32,"wet_bulb_temp_f":null,"air_temp_f":29,"relative_humidity_pct":70,"wind_cardinal_direction":"NNW","wind_gust_mph":7,"peak_wind_direction_deg":null,"peak_wind_speed_mph":null,"wind_direction_deg":344,"wind_speed_mph":2,"label":"2 mph (gusts 7), NNW"}},{"type":"Feature","geometry":{"type":"Point","coordinates":[-118.43883,33.99317]},"properties":{"station_name":"DW4674 Venice","last_updated":"2025-01-13T07:22:09.356Z","station_id":"D4674","dew_point_temp_f":36.88,"wet_bulb_temp_f":null,"air_temp_f":47,"relative_humidity_pct":68,"wind_cardinal_direction":"N","wind_gust_mph":3,"peak_wind_direction_deg":null,"peak_wind_speed_mph":null,"wind_direction_deg":0,"wind_speed_mph":1,"label":"1 mph (gusts 3), N"}},{"type":"Feature","geometry":{"type":"Point","coordinates":[-120.17073,39.0841]},"properties":{"station_name":"HOMEWOOD","last_updated":"2025-01-13T07:22:09.356Z","station_id":"HMDC1","dew_point_temp_f":16.99,"wet_bulb_temp_f":null,"air_temp_f":22,"relative_humidity_pct":81,"wind_cardinal_direction":"E","wind_gust_mph":16,"peak_wind_direction_deg":68,"peak_wind_speed_mph":16,"wind_direction_deg":90,"wind_speed_mph":9,"label":"9 mph (gusts 16), E"}},{"type":"Feature","geometry":{"type":"Point","coordinates":[-121.77883,38.55967]},"properties":{"station_name":"DW5348 Davis","last_updated":"2025-01-13T07:22:09.356Z","station_id":"D5348","dew_point_temp_f":42.3,"wet_bulb_temp_f":null,"air_temp_f":46,"relative_humidity_pct":87,"wind_cardinal_direction":"N","wind_gust_mph":3,"peak_wind_direction_deg":null,"peak_wind_speed_mph":null,"wind_direction_deg":0,"wind_speed_mph":5,"label":"5 mph (gusts 3), N"}},{"type":"Feature","geometry":{"type":"Point","coordinates":[-118.42283,37.38417]},"properties":{"station_name":"DW5754 Bishop","last_updated":"2025-01-13T07:22:09.356Z","station_id":"D5754","dew_point_temp_f":14.27,"wet_bulb_temp_f":null,"air_temp_f":33,"relative_humidity_pct":46,"wind_cardinal_direction":"E","wind_gust_mph":3,"peak_wind_direction_deg":null,"peak_wind_speed_mph":null,"wind_direction_deg":92,"wind_speed_mph":2,"label":"2 mph (gusts 3), E"}},{"type":"Feature","geometry":{"type":"Point","coordinates":[-117.78361,33.89167]},"properties":{"station_name":"W0PE-1 Yorba Linda","last_updated":"2025-01-13T07:22:09.356Z","station_id":"AT774","dew_point_temp_f":18.36,"wet_bulb_temp_f":null,"air_temp_f":57,"relative_humidity_pct":22,"wind_cardinal_direction":"NNW","wind_gust_mph":9,"peak_wind_direction_deg":null,"peak_wind_speed_mph":null,"wind_direction_deg":343,"wind_speed_mph":2,"label":"2 mph (gusts 9), NNW"}},{"type":"Feature","geometry":{"type":"Point","coordinates":[-120.42,38.03]},"properties":{"station_name":"COLUMBIA","last_updated":"2025-01-13T07:22:09.356Z","station_id":"KO22","dew_point_temp_f":35.56,"wet_bulb_temp_f":null,"air_temp_f":37.4,"relative_humidity_pct":93.13,"wind_cardinal_direction":"N","wind_gust_mph":null,"peak_wind_direction_deg":null,"peak_wind_speed_mph":null,"wind_direction_deg":0,"wind_speed_mph":0,"label":"0 mph, N"}},{"type":"Feature","geometry":{"type":"Point","coordinates":[-116.8,33.3]},"properties":{"station_name":"DW6178 Palomar Mountain","last_updated":"2025-01-13T07:22:09.356Z","station_id":"D6178","dew_point_temp_f":6.31,"wet_bulb_temp_f":null,"air_temp_f":31,"relative_humidity_pct":35,"wind_cardinal_direction":"ENE","wind_gust_mph":4,"peak_wind_direction_deg":null,"peak_wind_speed_mph":null,"wind_direction_deg":65,"wind_speed_mph":1,"label":"1 mph (gusts 4), ENE"}},{"type":"Feature","geometry":{"type":"Point","coordinates":[-117.13888,34.23483]},"properties":{"station_name":"HEAPS PEAK","last_updated":"2025-01-13T07:22:09.356Z","station_id":"HHPC1","dew_point_temp_f":5.45,"wet_bulb_temp_f":null,"air_temp_f":28,"relative_humidity_pct":38,"wind_cardinal_direction":"N","wind_gust_mph":32,"peak_wind_direction_deg":2,"peak_wind_speed_mph":32,"wind_direction_deg":10,"wind_speed_mph":22,"label":"22 mph (gusts 32), N"}},{"type":"Feature","geometry":{"type":"Point","coordinates":[-121.88894,36.9651]},"properties":{"station_name":"DW6358 Aptos","last_updated":"2025-01-13T07:22:09.356Z","station_id":"D6358","dew_point_temp_f":34.74,"wet_bulb_temp_f":null,"air_temp_f":44,"relative_humidity_pct":70,"wind_cardinal_direction":"NNE","wind_gust_mph":4,"peak_wind_direction_deg":null,"peak_wind_speed_mph":null,"wind_direction_deg":22,"wind_speed_mph":3,"label":"3 mph (gusts 4), NNE"}},